id	address	price	lng	lat
/inmueble/30786274/	San Juan Bautista, Madrid	2200	-3.661155999999999	40.4495843
/inmueble/28290390/	calle Condesa de Venadito, 20, San Pascual, Madrid	1145	 -3.652909	40.444195
/inmueble/30786268/	Goya, Madrid	850	-3.6718503	40.42572089999999
/inmueble/28693330/	calle Condesa de Venadito, 20, San Pascual, Madrid	803	-3.652909	40.444195
/inmueble/30786267/	calle ballesta, Malasaña-Universidad, Madrid	1050	-3.7037902	40.4167754
/inmueble/1880688/	calle Galileo, 34, Arapiles, Madrid	545	 -3.7102117	40.4330578
/inmueble/30786228/	calle clavelinas, 21, Valdeacederas, Madrid	650	-3.6992889	40.4686979
/inmueble/30116036/	calle de Lagasca, 134, Castellana, Madrid	2000	-3.6841645	40.4366943
/inmueble/30786221/	calle doctor castelo, Ibiza, Madrid	2100	-3.6744881	40.4202806
/inmueble/30782013/	Apóstol Santiago, Madrid	975	 -3.658056	40.476389
/inmueble/26616410/	calle Trafalgar, Trafalgar, Madrid	1200	-3.70088	40.4323626
/inmueble/30780268/	calle mercedes, Cuatro Caminos, Madrid	650	-3.699061699999999	40.4537102
/inmueble/27921813/	calle Camarena, 178, Aluche, Madrid	650	-3.7561894	40.3900494
/inmueble/30777881/	calle palos de la frontera, 23, Palos de Moguer, Madrid	520	-3.6952095	40.4033277
/inmueble/30786199/	avenida cantabria, 34, Alameda de Osuna, Madrid	700	-3.5862568	40.4569133
/inmueble/1727610/	calle Arrieta, 8, Palacio, Madrid	1090	-3.7105792	40.4190531
/inmueble/30786198/	calle francisco villaespesa, 31, Ventas, Madrid	550	-3.6470393	40.4291964
/inmueble/27763314/	calle Ponzano, 14, Almagro, Madrid	1700	-3.699397	40.4376666
/inmueble/2143377/	calle Doctor Bellido, 24, San Diego, Madrid	340	-3.6678959	40.3843915
/inmueble/26555539/	calle Cullera, 16, Lucero, Madrid	595	 -3.7467685	40.3970488
/inmueble/28433175/	calle de Talisio, 9, Quintana, Madrid	550	-3.6447258	40.4385994
/inmueble/30769961/	calle cardenal cisneros, 57, Trafalgar, Madrid	575	 -3.7026257	40.4333341
/inmueble/30786038/	calle vallehermoso, 92, Vallehermoso, Madrid	875	 -3.7081226	40.4390432
/inmueble/30277773/	calle de los Caños del Peral, 11, Palacio, Madrid	2500	-3.7083801	40.4190855
/inmueble/30786065/	calle torrecilla del leal, 29, Lavapiés-Embajadores, Madrid	490	-3.6989388	40.4099192
/inmueble/28621779/	calle General Martínez Campos, 17, Almagro, Madrid	3150	-3.696101899999999	40.4351675
/inmueble/28950705/	calle Torrelaguna, San Pascual, Madrid	950	-3.6580293	40.4498798
/inmueble/29169225/	calle Fernanflor, 6, Huertas-Cortes, Madrid	1300	-3.6999409	40.4142211
/inmueble/885240/	calle Torrelaguna, San Pascual, Madrid	1145	 -3.6580293	40.4498798
/inmueble/1197351/	calle Espartinas, 7, Goya, Madrid	1800	-3.6790551	40.42430650000001
/inmueble/30786046/	calle torrecilla del leal, 29, Lavapiés-Embajadores, Madrid	490	-3.6989388	40.4099192
/inmueble/30548257/	calle Claudio Coello, Recoletos, Madrid	1100	-3.6860046	40.4292135
/inmueble/30786051/	Malasaña-Universidad, Madrid	2000	-3.7115537	40.4299281
/inmueble/30641211/	calle de los gavilanes, Fuentelarreina, Madrid	1800	-3.7402176	40.479229
/inmueble/30786050/	El Viso, Madrid	1500	-3.6866813	40.4490213
/inmueble/30628545/	calle de la masó, Mirasierra, Madrid	3800	-3.7128335	40.491598
/inmueble/30785990/	plaza lucena, 5, Puerta del Ángel, Madrid	750	-3.7253926	40.4114545
/inmueble/30628507/	calle isabel clara eugenia, Sanchinarro, Madrid	1100	-3.7037902	40.4167754
/inmueble/26153834/	calle Francos Rodriguez, 76, Berruguete, Madrid	590	-3.709638199999999	40.4572458
/inmueble/30585505/	calle Basilio de Prado, Peñagrande, Madrid	2300	-3.7272346	40.4796368
/inmueble/25534337/	calle Quevedo, 4, Huertas-Cortes, Madrid	550	-3.6999409	40.4142211
/inmueble/30563987/	calle María Tudor, Sanchinarro, Madrid	1450	-3.7037902	40.4167754
/inmueble/30786022/	Bernabéu-Hispanoamérica, Madrid	1500	-3.6883445	40.4530541
/inmueble/30521364/	calle de Gabriel Lobo, El Viso, Madrid	750	-3.6803048	40.4432183
/inmueble/27348252/	calle Colegiata, 5, Lavapiés-Embajadores, Madrid	550	-3.7055642	40.4126851
/inmueble/30671748/	calle palmera, Ventilla-Almenara, Madrid	850	-3.6958778	40.4694349
/inmueble/27170455/	calle Quevedo, 4, Huertas-Cortes, Madrid	480	-3.6999409	40.4142211
/inmueble/26112359/	calle Viñegra, Los Cármenes, Madrid	1050	-3.7391617	40.4023466
/inmueble/30786007/	avenida ramón y cajal, Bernabéu-Hispanoamérica, Madrid	800	-3.6797153	40.4552066
/inmueble/28446698/	Goya, Madrid	2200	-3.6718503	40.42572089999999
/inmueble/30786001/	calle francisco ricci, Gaztambide, Madrid	700	-3.7134514	40.431216
/inmueble/30679592/	o´donnell, Recoletos, Madrid	4000	-3.6691667	40.421497
/inmueble/30786000/	calle de los vascos, Ciudad Universitaria, Madrid	625	 -3.7104593	40.446935
/inmueble/30673988/	Lista, Madrid	2200	-3.6769396	40.4312768
/inmueble/30785940/	El Viso, Madrid	3500	-3.6866813	40.4490213
/inmueble/30645274/	Recoletos, Madrid	2500	-3.6866377	40.4238593
/inmueble/30785924/	calle de ayala, Goya, Madrid	1300	-3.6799194	40.4275227
/inmueble/27996115/	Recoletos, Madrid	3300	-3.6866377	40.4238593
/inmueble/30785878/	calle de andres mellado, Gaztambide, Madrid	1050	-3.7142636	40.4364487
/inmueble/30543462/	paseo de Ginebra, 51, Rosas, Madrid	825	 -3.6009716	40.4234535
/inmueble/2135193/	calle José Antonio de Armona, 7, Palos de Moguer, Madrid	705	 -3.696646099999999	40.4045637
/inmueble/691774/	calle San Lorenzo, 16, Chueca-Justicia, Madrid	550	-3.6976649	40.4226162
/inmueble/30785832/	calle antonio rodríguez villa, El Viso, Madrid	1800	-3.6814855	40.44360169999999
/inmueble/30735107/	calle san vicente ferrer, Malasaña-Universidad, Madrid	700	-3.7037902	40.4167754
/inmueble/30785812/	calle isabel clara eugenia, Sanchinarro, Madrid	900	-3.7037902	40.4167754
/inmueble/30725943/	calle san vicente ferrer, Malasaña-Universidad, Madrid	850	-3.7037902	40.4167754
/inmueble/30785783/	calle juan álvarez mendizábal, 12, Argüelles, Madrid	825	 -3.7141653	40.42414369999999
/inmueble/30651734/	calle samaniego, Rejas, Madrid	600	-3.5815975	40.443774
/inmueble/30785779/	calle rafael bergamin, San Juan Bautista, Madrid	950	-3.6613057	40.44842879999999
/inmueble/30528195/	calle de Samaria, 14, Niño Jesús, Madrid	3200	-3.671266399999999	40.4128011
/inmueble/30785771/	calle alegría de la huerta, 12, Los Ángeles, Madrid	650	-3.6956742	40.3550832
/inmueble/30454095/	calle General Aranda, Ventilla-Almenara, Madrid	620	-3.6958778	40.4694349
/inmueble/30785766/	calle de la masó, Mirasierra, Madrid	1650	-3.7128335	40.491598
/inmueble/26013201/	calle Ponzano, Nuevos Ministerios-Ríos Rosas, Madrid	1850	-3.7010613	40.4426828
/inmueble/30785768/	calle las matas, 13, Berruguete, Madrid	450	-3.706605599999999	40.459257
/inmueble/30518708/	Chueca-Justicia, Madrid	2950	-3.6976649	40.4226162
/inmueble/30785711/	Almagro, Madrid	1600	-3.695287	40.4338618
/inmueble/30440221/	Castellana, Madrid	8500	-3.6871448	40.435469
/inmueble/30785706/	calle amaniel, Malasaña-Universidad, Madrid	900	-3.7037902	40.4167754
/inmueble/28989649/	Recoletos, Madrid	2300	-3.6866377	40.4238593
/inmueble/29822160/	calle San Herculano, 9, Canillejas, Madrid	495	 -3.6109172	40.4411697
/inmueble/30603390/	calle golfo de salonica, 63, Apóstol Santiago, Madrid	875	 -3.6614644	40.4811147
/inmueble/30785685/	Argüelles, Madrid	1600	-3.721413	40.4294136
/inmueble/30577685/	calle Golfo de Salonica, 63, Apóstol Santiago, Madrid	875	 -3.6614644	40.4811147
/inmueble/26101512/	calle Velarde, 1, Malasaña-Universidad, Madrid	1200	-3.7037902	40.4167754
/inmueble/1935473/	calle Golfo de Salónica, 50, Costillares, Madrid	1200	-3.6621741	40.4809957
/inmueble/30785655/	calle marceliano santa maria, El Viso, Madrid	1800	-3.6884898	40.450672
/inmueble/30644745/	modesto lafuente, Almagro, Madrid	1550	-3.6960989	40.4405582
/inmueble/30785637/	Bernabéu-Hispanoamérica, Madrid	800	-3.6883445	40.4530541
/inmueble/781554/	calle Alonso Cano, Nuevos Ministerios-Ríos Rosas, Madrid	1000	-3.7010613	40.4426828
/inmueble/30785616/	paseo de la castellana, Nueva España, Madrid	1300	-3.6891635	40.45424089999999
/inmueble/1285551/	calle de la Olimpiada, Ciudad Universitaria, Madrid	1000	-3.7104241	40.4502296
/inmueble/30785618/	calle benigno soto, 9, Ciudad Jardín, Madrid	600	-3.6742683	40.4480999
/inmueble/30651390/	Rejas, Madrid	750	-3.5771601	40.44447460000001
/inmueble/30785611/	calle del general oraá, Castellana, Madrid	1800	-3.6821174	40.4360933
/inmueble/30674811/	calle arturo soria, Concepción, Madrid	900	-3.6560398	40.4555268
/inmueble/30785594/	calle vicente caballero, 22, Estrella, Madrid	1100	-3.6685853	40.4188187
/inmueble/28654036/	calle Mayor, Sol, Madrid	1200	-3.7078954	40.41613359999999
/inmueble/30785565/	calle oca, San Isidro, Madrid	500	-3.738586799999999	40.3891518
/inmueble/25087568/	calle Ilustracion, Argüelles, Madrid	1350	-3.717758799999999	40.4211904
/inmueble/30785559/	avenida concha espina, 15, Bernabéu-Hispanoamérica, Madrid	850	-3.6797153	40.4552066
/inmueble/30760213/	calle san bruno, Palacio, Madrid	1450	-3.7082997	40.4130174
/inmueble/30785554/	calle josé garcía granda,, Portazgo, Madrid	650	-3.6501447	40.3939043
/inmueble/30758973/	calle blasco de garay, Arapiles, Madrid	650	-3.7114695	40.4347403
/inmueble/2139949/	calle López de Hoyos, 290, Colina, Madrid	600	-3.6625599	40.4549391
/inmueble/30730006/	calle raimundo fernandez villaverde, Nuevos Ministerios-Ríos Rosas, Madrid	1200	-3.7010613	40.4426828
/inmueble/30785550/	Goya, Madrid	1850	-3.6718503	40.42572089999999
/inmueble/30622241/	calle arturo soria, Atalaya, Madrid	1100	-3.6585715	40.4582156
/inmueble/30785545/	Gaztambide, Madrid	1500	-3.7169624	40.4366125
/inmueble/30530911/	calle Zamora, Bellas Vistas, Madrid	649	 -3.708346499999999	40.4510424
/inmueble/30785527/	avenida de pablo iglesias, 46, Bellas Vistas, Madrid	840	-3.709796	40.4496816
/inmueble/30742493/	calle doctor piga, 8, Lavapiés-Embajadores, Madrid	850	-3.6983643	40.4084112
/inmueble/30075034/	calle Sierra de Pajarejo, 7, Valdemarín, Madrid	1250	-3.79731	40.46671
/inmueble/30628567/	calle castillo de candanchú, Las Tablas, Madrid	900	-3.6778816	40.5015818
/inmueble/2109302/	calle Puente la Reina, 39, Las Tablas, Madrid	504	 -3.6766249	40.5011857
/inmueble/30631262/	calle eunate, 12, Las Tablas, Madrid	1200	-3.6776084	40.5047424
/inmueble/30785440/	calle de san benito, 14, Ventilla-Almenara, Madrid	700	-3.6958778	40.4694349
/inmueble/26794762/	calle Francisco Navacerrada, 36, Guindalera, Madrid	650	-3.667838199999999	40.43113
/inmueble/30785491/	calle escalinata, Palacio, Madrid	750	-3.7093123	40.41724610000001
/inmueble/30569223/	calle de Añastro, 23, Apóstol Santiago, Madrid	800	-3.6621268	40.4683326
/inmueble/26578813/	calle de Juan Bravo, 45, Lista, Madrid	950	-3.6768225	40.4326517
/inmueble/2104063/	calle José Abascal, 14, Almagro, Madrid	1600	-3.6997015	40.43829909999999
/inmueble/30785421/	Chueca-Justicia, Madrid	650	-3.6976649	40.4226162
/inmueble/30630543/	calle de boston, 12, Guindalera, Madrid	850	-3.6666741	40.4373751
/inmueble/30785428/	avenida concha espina, 37, Bernabéu-Hispanoamérica, Madrid	850	-3.6797153	40.4552066
/inmueble/30553590/	Nuevos Ministerios-Ríos Rosas, Madrid	1700	-3.692299999999999	40.446803
/inmueble/25815981/	Alonso Cano, 28, Nuevos Ministerios-Ríos Rosas, Madrid	720	-3.7010613	40.4426828
/inmueble/1804645/	calle Huertas, 58, Huertas-Cortes, Madrid	1050	-3.6999409	40.4142211
/inmueble/30785406/	calle toledo, Palacio, Madrid	1450	-3.7109544	40.4081036
/inmueble/1759738/	avenida Daroca, 39, Ventas, Madrid	530	-3.6533022	40.429505
/inmueble/30785400/	alcantara, Lista, Madrid	700	-3.6733239	40.4332019
/inmueble/29265173/	Ibiza, Madrid	1049	 -3.6750591	40.42006250000001
/inmueble/30785392/	calle ginzo de limia, 46, La Paz, Madrid	800	-3.7031918	40.4786747
/inmueble/27559059/	calle General Lacy, 20, Palos de Moguer, Madrid	490	-3.690930199999999	40.403457
/inmueble/30785382/	calle zabaleta, 58, Prosperidad, Madrid	700	-3.6725102	40.4430012
/inmueble/25030956/	Castellana, Madrid	950	-3.6871448	40.435469
/inmueble/28342535/	calle Claudio Coello, 47, Recoletos, Madrid	1250	-3.6864585	40.4266966
/inmueble/1470910/	Castellana, Madrid	900	-3.6871448	40.435469
/inmueble/30785361/	calle guzman el bueno, Gaztambide, Madrid	450	-3.7106121	40.4389131
/inmueble/27417631/	calle General Díaz Porlier, 85, Lista, Madrid	900	-3.6766774	40.4328423
/inmueble/30785000/	calle del monasterio de las batuecas, 24, Montecarmelo, Madrid	2800	-3.7037902	40.4167754
/inmueble/30785346/	calle londres, Guindalera, Madrid	775	 -3.6672568	40.4316416
/inmueble/30785337/	calle espino, 6, Lavapiés-Embajadores, Madrid	730	-3.7014464	40.4070318
/inmueble/30785245/	calle malaga, 5, Nuevos Ministerios-Ríos Rosas, Madrid	800	-3.7010613	40.4426828
/inmueble/30785206/	calle amaniel, Malasaña-Universidad, Madrid	900	-3.7037902	40.4167754
/inmueble/30785205/	calle treviño, 3, Nuevos Ministerios-Ríos Rosas, Madrid	650	-3.7010613	40.4426828
/inmueble/30785191/	calle de la luna, 19, Malasaña-Universidad, Madrid	1500	-3.7071075	40.4229121
/inmueble/30785185/	Huertas-Cortes, Madrid	1150	-3.6981578	40.4135026
/inmueble/30785147/	escalinata, Palacio, Madrid	750	-3.7093123	40.41724610000001
/inmueble/30785140/	calle francisco ricci, Gaztambide, Madrid	1100	-3.7134514	40.431216
/inmueble/30785108/	calle de pradillo, Ciudad Jardín, Madrid	900	-3.672636	40.448894
/inmueble/30785106/	Castellana, Madrid	2000	-3.6871448	40.435469
/inmueble/29077634/	Ciudad Universitaria, Madrid	450	-3.7302682	40.4459167
/inmueble/28859415/	calle Jose Silva, Colina, Madrid	450	-3.6579351	40.4550676
/inmueble/30785074/	calle de castelló, 117, Castellana, Madrid	2160	-3.6806665	40.4371154
/inmueble/30785056/	calle de lagasca, Castellana, Madrid	2000	-3.6849347	40.429176
/inmueble/30785043/	viriato, 41, Trafalgar, Madrid	1100	-3.6995797	40.4358921
/inmueble/30785037/	calle pinar del rey, 41, Pinar del Rey, Madrid	750	-3.6554225	40.4682367
/inmueble/28357740/	calle Almagro, Almagro, Madrid	600	-3.6950719	40.4282741
/inmueble/30785027/	Chueca-Justicia, Madrid	850	-3.6976649	40.4226162
/inmueble/30785021/	calle tutor, Argüelles, Madrid	1450	-3.716634	40.4293382
/inmueble/30785020/	calle de fernández de los rios, Gaztambide, Madrid	1000	-3.711432	40.4352441
/inmueble/30785001/	calle sancho davila, Fuente del Berro, Madrid	780	-3.6618639	40.4268527
/inmueble/30785012/	calle treviño, 3, Nuevos Ministerios-Ríos Rosas, Madrid	750	-3.7010613	40.4426828
/inmueble/30784905/	calle de la ruda, 19, Lavapiés-Embajadores, Madrid	1200	-3.7084367	40.410586
/inmueble/27226711/	calle Cuchilleros, 6, Palacio, Madrid	850	-3.7081499	40.4142904
/inmueble/30784974/	calle paloma, 10, Palacio, Madrid	630	-3.7118586	40.4086145
/inmueble/30784961/	plaza ciudad de salta, Colina, Madrid	1150	-3.661683499999999	40.4546797
/inmueble/30784952/	calle de blasco de garay, Arapiles, Madrid	740	-3.7114695	40.4347403
/inmueble/30784936/	collado de la mina, 12, Arroyo del Fresno, Madrid	1200	-3.7178631	40.4901571
/inmueble/28104369/	calle Cordel de Pavones, Valdebernardo - Valderribas, Madrid	650	-3.7037902	40.4167754
/inmueble/30784933/	calle encomienda, 6, Lavapiés-Embajadores, Madrid	450	-3.7052731	40.4109039
/inmueble/30784559/	calle josé serrano, 2, San Diego, Madrid	500	-3.6703827	40.3869812
/inmueble/30784913/	calle de pradillo, Ciudad Jardín, Madrid	900	-3.672636	40.448894
/inmueble/30784867/	Gaztambide, Madrid	650	-3.7169624	40.4366125
/inmueble/30784882/	calle alfredo marquerie, La Paz, Madrid	1300	-3.7019693	40.4871677
/inmueble/30784864/	calle virgen de lourdes, 36, Concepción, Madrid	550	-3.6565483	40.4357485
/inmueble/30784847/	calle jose anduiza, 9, Tres Olivos - Valverde, Madrid	600	-3.6869652	40.4852321
/inmueble/30784843/	Prosperidad, Madrid	560	-3.6724358	40.4442671
/inmueble/30784790/	calle de méjico, 11, Guindalera, Madrid	995	 -3.6743495	40.4362552
/inmueble/30784738/	Recoletos, Madrid	3300	-3.6866377	40.4238593
/inmueble/30784696/	calle de carmen sánchez carrascosa, 7, Castilla, Madrid	1500	-3.6871624	40.4689054
/inmueble/30784682/	calle pinos alta, 55, Valdeacederas, Madrid	550	-3.6975031	40.4674641
/inmueble/30784681/	Sol, Madrid	1400	-3.703889	40.416667
/inmueble/30784690/	calle de asura, Colina, Madrid	600	-3.6535597	40.4562114
/inmueble/30784677/	calle de melchor fernández almagro, La Paz, Madrid	1200	-3.7014893	40.47731599999999
/inmueble/30784670/	marques de santa ana, Malasaña-Universidad, Madrid	800	-3.7037902	40.4167754
/inmueble/30784654/	calle cuchilleros, Sol, Madrid	1100	-3.7080207	40.4143803
/inmueble/30784648/	calle de alcalá, Goya, Madrid	1850	-3.6717143	40.42664570000001
/inmueble/28208753/	calle Evaristo San Miguel, Argüelles, Madrid	1350	-3.7155047	40.4266587
/inmueble/30784544/	calle reloj, Palacio, Madrid	600	-3.7112119	40.421063
/inmueble/30784532/	calle ayala, Recoletos, Madrid	1200	-3.6799194	40.4275227
/inmueble/30784513/	calle isla de oza, 63, Valdezarza, Madrid	795	 -3.720886499999999	40.463502
/inmueble/30784505/	o´donnell, Recoletos, Madrid	3900	-3.6691667	40.421497
/inmueble/25640620/	avenida Gran Vía del sureste, 25, Ensanche de Vallecas - Valdecarros, Madrid	550	-3.7037902	40.4167754
/inmueble/30784503/	Ciudad Jardín, Madrid	3000	-3.4082018	40.6365658
/inmueble/30784458/	marques de jura real, Comillas, Madrid	700	-3.7097413	40.39206799999999
/inmueble/30784450/	calle martín martínez, Ciudad Jardín, Madrid	570	-3.6727514	40.4469709
/inmueble/30784414/	Almagro, Madrid	950	-3.695287	40.4338618
/inmueble/25382728/	calle General Perón, Cuatro Caminos, Madrid	850	-3.695609299999999	40.4523426
/inmueble/30784352/	diego de leon, Castellana, Madrid	1650	-3.675085	40.4346325
/inmueble/30784337/	calle de francisco silvela, Lista, Madrid	760	-3.6746358	40.4346962
/inmueble/30784336/	calle treviño, 3, Nuevos Ministerios-Ríos Rosas, Madrid	680	-3.7010613	40.4426828
/inmueble/30784315/	calle monteleón, Trafalgar, Madrid	675	 -3.7047387	40.4293726
/inmueble/757658/	calle Hermosilla, Goya, Madrid	1200	-3.6771592	40.42599
/inmueble/30784325/	calle de garcía de paredes, Almagro, Madrid	1350	-3.6963997	40.4366999
/inmueble/28158945/	calle Fuente de Torrejona, Casco Histórico de Barajas, Madrid	500	-3.5753774	40.4734797
/inmueble/30784295/	Vallehermoso, Madrid	950	-3.711667	40.442778
/inmueble/30784294/	calle de la victoria, Sol, Madrid	850	-3.7016727	40.4156499
/inmueble/30784252/	Concepción, Madrid	950	-3.648056	40.440278
/inmueble/30784238/	Aravaca, Madrid	3400	-3.7854441	40.458195
/inmueble/765196/	calle General Pardiñas, Goya, Madrid	780	-3.6782358	40.4300287
/inmueble/2033622/	calle General Moscardó, 1, Cuatro Caminos, Madrid	1450	-3.6971063	40.4465766
/inmueble/30784162/	Nuevos Ministerios-Ríos Rosas, Madrid	1700	-3.692299999999999	40.446803
/inmueble/30783984/	calle del capitán haya, 47, Cuzco-Castillejos, Madrid	1200	-3.6954509	40.4600771
/inmueble/30784122/	Ciudad Jardín, Madrid	750	-3.4082018	40.6365658
/inmueble/30784077/	travesía conde duque, 15, Malasaña-Universidad, Madrid	575	 -3.7037902	40.4167754
/inmueble/30784086/	Bernabéu-Hispanoamérica, Madrid	1450	-3.6883445	40.4530541
/inmueble/30784076/	calle Francisco Lizcano, 20, Buena Vista, Madrid	825	 -3.7588769	40.3669526
/inmueble/30784078/	calle fernández de los ríos,, Arapiles, Madrid	790	-3.711432	40.4352441
/inmueble/30784069/	calle zurbano, Almagro, Madrid	3400	-3.6932444	40.4339992
/inmueble/30784041/	calle del cardenal cisneros, 15, Trafalgar, Madrid	700	-3.7017886	40.4302651
/inmueble/30779999/	calle del barco, 7, Malasaña-Universidad, Madrid	750	-3.7037902	40.4167754
/inmueble/30784017/	calle virgen del coro, Concepción, Madrid	790	-3.6587478	40.4337391
/inmueble/30784014/	altamirano, Argüelles, Madrid	1000	-3.7169241	40.4313765
/inmueble/30784011/	calle divino pastor, Malasaña-Universidad, Madrid	550	-3.7037902	40.4167754
/inmueble/30784005/	plaza castilla, Ventilla-Almenara, Madrid	1400	-3.6958778	40.4694349
/inmueble/28257587/	calle Buen Suceso, Argüelles, Madrid	1600	-3.718372	40.4285693
/inmueble/30783989/	calle de isaac peral, Vallehermoso, Madrid	950	-3.7177142	40.4390236
/inmueble/30783793/	Sanchinarro, Madrid	1200	-3.6678172	40.4923392
/inmueble/581606/	calle María Teresa, Guindalera, Madrid	800	-3.6682561	40.4361639
/inmueble/30783937/	Recoletos, Madrid	650	-3.6866377	40.4238593
/inmueble/30783917/	Recoletos, Madrid	1100	-3.6866377	40.4238593
/inmueble/30783869/	calle alcatraz, Opañel, Madrid	650	-3.721736599999999	40.3891692
/inmueble/30783531/	calle garcía salazar, 10, Pueblo Nuevo, Madrid	635	 -3.637842099999999	40.4255682
/inmueble/30783856/	calle toledo, Imperial, Madrid	700	-3.7109544	40.4081036
/inmueble/30783852/	calle jaen, Cuatro Caminos, Madrid	550	-3.7007496	40.45035379999999
/inmueble/30783839/	Ambroz, Madrid	650	-3.6169718	40.4098909
/inmueble/1976750/	calle Velázquez, 71, Castellana, Madrid	750	-3.6839824	40.4309932
/inmueble/30783832/	calle doctor cortezo, Lavapiés-Embajadores, Madrid	695	 -3.7009077	40.4085123
/inmueble/1991129/	calle Cerro Blanco, 23, Zofío, Madrid	650	-3.7161199	40.3803397
/inmueble/30783819/	calle almendro, Palacio, Madrid	690	-3.7101551	40.4123786
/inmueble/30783811/	calle alonso cano, Nuevos Ministerios-Ríos Rosas, Madrid	775	 -3.7010613	40.4426828
/inmueble/30783605/	paseo de la direccion, 110, Berruguete, Madrid	550	-3.706177799999999	40.4617262
/inmueble/30783693/	calle de doctor fleming, Nueva España, Madrid	1955	 -3.6877488	40.463748
/inmueble/30783683/	Ambroz, Madrid	650	-3.6169718	40.4098909
/inmueble/30783664/	calle doctor cortezo, 8, Lavapiés-Embajadores, Madrid	695	 -3.7038288	40.4132105
/inmueble/30783557/	calle del conde de peñalver, 57, Lista, Madrid	960	-3.6752478	40.4328032
/inmueble/389528/	calle Prado, 4, Huertas-Cortes, Madrid	1700	-3.6999409	40.4142211
/inmueble/30783455/	Bellas Vistas, Madrid	1250	-3.7126362	40.4545671
/inmueble/30782745/	calle luis villa, 3, Goya, Madrid	700	-3.669326	40.4259395
/inmueble/25732988/	calle Padre Cooloma, San Pascual, Madrid	800	-3.6530625	40.4411268
/inmueble/30782159/	calle de carlos iv, 6, Simancas, Madrid	1100	-3.6181573	40.4352123
/inmueble/30783147/	calle bernardino de pantorba, 4, Ensanche de Vallecas - Valdecarros, Madrid	650	-3.7037902	40.4167754
/inmueble/30782889/	Lista, Madrid	1750	-3.6769396	40.4312768
/inmueble/30782887/	calle montserrat, Malasaña-Universidad, Madrid	480	-3.7037902	40.4167754
/inmueble/28723424/	calle Andrés Mellado, 3, Gaztambide, Madrid	1500	-3.7147331	40.4309008
/inmueble/30782839/	Virgen del Cortijo - Manoteras, Madrid	1900	-3.663944499999999	40.4880079
/inmueble/26592762/	calle Doctor Fleming, 43, Nueva España, Madrid	1955	 -3.6878997	40.4624806
/inmueble/30782794/	isabel la catolica, Palacio, Madrid	950	-3.7092061	40.4215321
/inmueble/1960567/	calle Lérida, 89, Cuzco-Castillejos, Madrid	650	-3.6954509	40.4600771
/inmueble/30781520/	calle de la pirra, 14, Rejas, Madrid	725	 -3.5885955	40.4442261
/inmueble/30781393/	ponzano, 23, Nuevos Ministerios-Ríos Rosas, Madrid	590	-3.7010613	40.4426828
/inmueble/30782764/	calle hilarión eslava, 4, Gaztambide, Madrid	1490	-3.7166963	40.4325354
/inmueble/30780813/	calle monasterio de montesclaros, 9, Montecarmelo, Madrid	780	-3.7037902	40.4167754
/inmueble/30780619/	calle de oña, 53, Virgen del Cortijo - Manoteras, Madrid	925	 -3.7037902	40.4167754
/inmueble/30780320/	calle de garibay, 8, Adelfas, Madrid	950	-3.6706867	40.4033839
/inmueble/30782741/	calle ligonde, Las Tablas, Madrid	1000	-3.6690176	40.5108086
/inmueble/30782715/	calle del doctor esquerdo, 130, Niño Jesús, Madrid	420	-3.6703397	40.407171
/inmueble/30779944/	calle de alberto aguilera, 34, Arapiles, Madrid	1100	-3.7113238	40.4302701
/inmueble/30782720/	calle hilarión eslava, 4, Gaztambide, Madrid	1190	-3.7166963	40.4325354
/inmueble/29486942/	calle Lagasca, Castellana, Madrid	1300	-3.6849347	40.429176
/inmueble/30782708/	plaza de los reyes magos, Niño Jesús, Madrid	1500	-3.676473399999999	40.4089563
/inmueble/26250135/	Teniente Coronel Norena, Legazpi, Madrid	760	-3.6929796	40.3881584
/inmueble/26250131/	calle José Antonio Zapata, Legazpi, Madrid	760	-3.6922072	40.38632
/inmueble/1812140/	calle Divino Pastor, 16, Malasaña-Universidad, Madrid	800	-3.7037902	40.4167754
/inmueble/30778598/	calle de la villa de marín, 47, La Paz, Madrid	1200	-3.69794	40.478843
/inmueble/30778565/	paseo de extremadura, 73, Puerta del Ángel, Madrid	690	-3.7325834	40.4119957
/inmueble/30778519/	calle irlanda, 7, San Isidro, Madrid	550	-3.722261399999999	40.3946684
/inmueble/30778379/	alameda del valle, 22, Ensanche de Vallecas - Valdecarros, Madrid	775	 -3.7037902	40.4167754
/inmueble/26485922/	calle Naves, 9, Acacias, Madrid	550	-3.7074456	40.3987164
/inmueble/30782503/	calle salitre, Lavapiés-Embajadores, Madrid	400	-3.6992199	40.4089305
/inmueble/30782502/	calle don ramón de la cruz, Goya, Madrid	925	 -3.6783319	40.4288434
/inmueble/30782494/	calle evaristo san miguel, Argüelles, Madrid	790	-3.7155047	40.4266587
/inmueble/30782489/	calle modesto lafuente, Nuevos Ministerios-Ríos Rosas, Madrid	1600	-3.7010613	40.4426828
/inmueble/30782475/	calle fernando el católico, Arapiles, Madrid	1800	-3.7118693	40.4341708
/inmueble/30782480/	plaza tuy, Pilar, Madrid	700	-3.7105206	40.4760983
/inmueble/30782468/	calle corazón de maría, Prosperidad, Madrid	1000	-3.6670677	40.4446181
/inmueble/30782461/	calle princesa de éboli, Sanchinarro, Madrid	850	-3.7037902	40.4167754
/inmueble/30782443/	calle méjico, Guindalera, Madrid	650	-3.6737856	40.4366705
/inmueble/30782442/	calle mediodia grande, Palacio, Madrid	700	-3.7114468	40.4100502
/inmueble/30782448/	calle lerida, Cuatro Caminos, Madrid	900	-3.7003253	40.4553315
/inmueble/30782439/	calle medellín, Trafalgar, Madrid	570	-3.6999264	40.43582809999999
/inmueble/30782435/	calle del comandante zorita, 51, Cuatro Caminos, Madrid	1400	-3.6986558	40.45184
/inmueble/30782422/	Cuzco-Castillejos, Madrid	600	-3.69032	40.45827999999999
/inmueble/30782417/	Castellana, Madrid	1300	-3.6871448	40.435469
/inmueble/30782416/	Castellana, Madrid	3500	-3.6871448	40.435469
/inmueble/30782408/	Ambroz, Madrid	650	-3.6169718	40.4098909
/inmueble/30782407/	Ambroz, Madrid	650	-3.6169718	40.4098909
/inmueble/30782100/	calle de las aguas, 6, Palacio, Madrid	950	-3.7121563	40.410781
/inmueble/30782056/	Fuente del Berro, Madrid	650	-3.6669307	40.4253349
/inmueble/30782021/	calle sambara, 106, Quintana, Madrid	475	 -3.6449563	40.4365312
/inmueble/30781976/	calle félix boix, 4, Nueva España, Madrid	1295	 -3.6885225	40.4632409
/inmueble/30781984/	calle golfo de salónica, 63, Apóstol Santiago, Madrid	875	 -3.6614644	40.4811147
/inmueble/30781888/	Apóstol Santiago, Madrid	975	 -3.658056	40.476389
/inmueble/30781847/	Prosperidad, Madrid	750	-3.6724358	40.4442671
/inmueble/30781835/	calle castilla, Bellas Vistas, Madrid	450	-3.7052673	40.4530232
/inmueble/30781815/	paseo de la dirección, Valdeacederas, Madrid	399	 -3.7060813	40.4649803
/inmueble/30781832/	calle de los mártires de la ventilla, Ventilla-Almenara, Madrid	800	-3.6958778	40.4694349
/inmueble/30781809/	Apóstol Santiago, Madrid	975	 -3.658056	40.476389
/inmueble/30781772/	calle topete, 9, Bellas Vistas, Madrid	500	-3.7048047	40.4493283
/inmueble/25599343/	calle Frómista, 15, Las Tablas, Madrid	1200	-3.6738554	40.5105121
/inmueble/30781726/	Apóstol Santiago, Madrid	975	 -3.658056	40.476389
/inmueble/30781553/	Conde Orgaz-Piovera, Madrid	1199	 -3.6333569	40.4599098
/inmueble/30781489/	Imperial, Madrid	990	-3.7200879	40.4068452
/inmueble/30781420/	Castellana, Madrid	1300	-3.6871448	40.435469
/inmueble/30781412/	calle valderrebollo, 20, Ensanche de Vallecas - Valdecarros, Madrid	700	-3.7037902	40.4167754
/inmueble/28080657/	calle Hortaleza, 116, Chueca-Justicia, Madrid	990	-3.6976649	40.4226162
/inmueble/1991721/	calle García de Paredes, 11, Trafalgar, Madrid	625	 -3.7020772	40.43707149999999
/inmueble/1999635/	avenida Mediterráneo, 43, Estrella, Madrid	900	-3.6691902	40.4069691
/inmueble/30781107/	Fuente del Berro, Madrid	1350	-3.6669307	40.4253349
/inmueble/28704541/	calle Vallehermoso, 62, Arapiles, Madrid	900	-3.7083123	40.4367922
/inmueble/30780970/	plaza águeda diez, 2, San Isidro, Madrid	750	-3.7319873	40.39012630000001
/inmueble/30780981/	pasaje de montesa, 8, Lista, Madrid	750	-3.6730438	40.429124
/inmueble/30780956/	calle del conde de cartagena, Niño Jesús, Madrid	2500	-3.6746317	40.4081877
/inmueble/29278233/	calle Valderrobres, 27, Canillejas, Madrid	550	-3.6107378	40.4440445
/inmueble/30780815/	paseo del rey, Argüelles, Madrid	750	-3.7207569	40.423491
/inmueble/30780810/	plaza del ecuador, Bernabéu-Hispanoamérica, Madrid	1600	-3.6797153	40.4552066
/inmueble/30780666/	calle sierra de atapuerca, 35, Las Tablas, Madrid	950	-3.6679033	40.5052757
/inmueble/30780641/	calle arturo baldasano, Colina, Madrid	2200	-3.6595316	40.4563768
/inmueble/30780638/	Valdemarín, Madrid	2200	-3.7797523	40.4708461
/inmueble/30780528/	calle coslada, 6, Guindalera, Madrid	580	-3.6755814	40.4370639
/inmueble/26493845/	calle de Valderribas, 19, Pacífico, Madrid	1150	-3.6790472	40.4060334
/inmueble/30780543/	calle de bravo murillo, 125, Bellas Vistas, Madrid	950	-3.7038219	40.4492658
/inmueble/30780580/	Gaztambide, Madrid	1200	-3.7169624	40.4366125
/inmueble/30780564/	paseo reina cristina, Pacífico, Madrid	1300	-3.6820258	40.4069799
/inmueble/1950996/	calle Lagasca, 117, Castellana, Madrid	1300	-3.6844481	40.4358775
/inmueble/30780531/	calle galileo, 104, Vallehermoso, Madrid	616	 -3.7097963	40.4394469
/inmueble/30780517/	avenida de la reina victoria, 51, Vallehermoso, Madrid	1800	-3.7120828	40.44624779999999
/inmueble/2065115/	paseo Florida, 8, Casa de Campo, Madrid	1200	-3.7219784	40.4222297
/inmueble/30780430/	calle de bravo murillo, 125, Bellas Vistas, Madrid	1100	-3.7038219	40.4492658
/inmueble/30780516/	calle de samaniego, Rejas, Madrid	625	 -3.5815975	40.443774
/inmueble/30780515/	calle puerto de la bonaigua, San Diego, Madrid	425	 -3.6645362	40.387141
/inmueble/30780492/	Conde Orgaz-Piovera, Madrid	3000	-3.6333569	40.4599098
/inmueble/30780447/	calle tres peces, 18, Lavapiés-Embajadores, Madrid	600	-3.6996939	40.41068360000001
/inmueble/30780488/	Ciudad Jardín, Madrid	700	-3.4082018	40.6365658
/inmueble/30780451/	jose espelius, 9, Puerta del Ángel, Madrid	750	-3.7358151	40.4103935
/inmueble/27505284/	calle Guerrero y Mendoza, 63, Ciudad Jardín, Madrid	790	-3.669503	40.45206719999999
/inmueble/28348129/	calle Villaviciosa, 51, Campamento, Madrid	500	-3.772604	40.3963433
/inmueble/25666063/	calle Monte Perdido, 43, San Diego, Madrid	700	-3.6684921	40.3935995
/inmueble/30780349/	calle francisco ricci, Gaztambide, Madrid	1200	-3.7134514	40.431216
/inmueble/30780334/	calle paulina odiaga, 15, San Isidro, Madrid	495	 -3.724523	40.3940601
/inmueble/30780312/	avenida del general perón, Cuatro Caminos, Madrid	2300	-3.695609299999999	40.4523426
/inmueble/30780291/	calle de francisco silvela, 87, Lista, Madrid	800	-3.6774212	40.4370108
/inmueble/30780232/	calle de augusto figueroa, 29, Chueca-Justicia, Madrid	780	-3.6976649	40.4226162
/inmueble/30780280/	calle churruca, Chueca-Justicia, Madrid	1000	-3.6976649	40.4226162
/inmueble/30780255/	Lista, Madrid	1450	-3.6769396	40.4312768
/inmueble/30780250/	calle de sánchez preciado, 56, Valdezarza, Madrid	650	-3.7097668	40.4625074
/inmueble/30780069/	calle de la peña santa, 10, Mirasierra, Madrid	2000	-3.7038545	40.49464680000001
/inmueble/30780218/	calle profesor waksman, Bernabéu-Hispanoamérica, Madrid	1500	-3.6797153	40.4552066
/inmueble/30780166/	calle caleruega, Costillares, Madrid	1175	 -3.6704683	40.4806533
/inmueble/30780137/	calle tenerife, 25, Bellas Vistas, Madrid	675	 -3.706225	40.4509739
/inmueble/30780106/	calle arrieta, 9, Palacio, Madrid	700	-3.710801	40.41897609999999
/inmueble/26308265/	Cuzco-Castillejos, Madrid	780	-3.69032	40.45827999999999
/inmueble/30780111/	calle del doctor lozano, Numancia, Madrid	550	-3.660765799999999	40.4031044
/inmueble/30780068/	calle panizo, Berruguete, Madrid	700	-3.7054894	40.4615567
/inmueble/30780045/	calle matilde diez, Ciudad Jardín, Madrid	725	 -3.6737189	40.4458946
/inmueble/30780021/	calle encomienda, 6, Lavapiés-Embajadores, Madrid	500	-3.7052731	40.4109039
/inmueble/30780016/	carmen bruguera, Moscardó, Madrid	550	-3.7042198	40.3873533
/inmueble/30779980/	calle general fanjul, Águilas, Madrid	650	-3.772052	40.3828393
/inmueble/30779921/	orizaba, 42, Salvador, Madrid	2600	-3.630776899999999	40.4424584
/inmueble/30779931/	calle augustóbriga, 1, Los Rosales, Madrid	700	-3.6849418	40.3560738
/inmueble/30779915/	calle tomás borrás, Chopera, Madrid	650	-3.696616499999999	40.3955766
/inmueble/30779920/	calle pozas, Malasaña-Universidad, Madrid	500	-3.7037902	40.4167754
/inmueble/30779894/	lavapies, Lavapiés-Embajadores, Madrid	650	-3.7026316	40.4106313
/inmueble/29192023/	paseo de la Castellana, 210, Nueva España, Madrid	1050	-3.6889556	40.4631734
/inmueble/28471075/	calle de Arrozal, 11, Amposta, Madrid	450	-3.620587599999999	40.427511
/inmueble/30779672/	calle de carrion de los condes, 79, Apóstol Santiago, Madrid	555	 -3.6576205	40.475804
/inmueble/30779791/	Lista, Madrid	950	-3.6769396	40.4312768
/inmueble/30779768/	Fuente del Berro, Madrid	800	-3.6669307	40.4253349
/inmueble/30779744/	ezequiel solana, Pueblo Nuevo, Madrid	600	-3.6469582	40.4335757
/inmueble/30779704/	Concepción, Madrid	790	-3.648056	40.440278
/inmueble/30779703/	castillo de la coca, Simancas, Madrid	600	-3.6280374	40.4296958
/inmueble/30779700/	Arapiles, Madrid	1250	-3.706705899999999	40.4343911
/inmueble/25908987/	calle de Ulises, 4, San Juan Bautista, Madrid	1200	-3.6555586	40.4560536
/inmueble/30779677/	Ciudad Jardín, Madrid	700	-3.4082018	40.6365658
/inmueble/30779665/	calle de zaida, 56, San Isidro, Madrid	550	-3.7354343	40.39142349999999
/inmueble/30779670/	calle fernando higueras, Valdebebas - Valdefuentes, Madrid	900	-3.640837	40.5004822
/inmueble/30779669/	calle montecarmelo, Montecarmelo, Madrid	950	-3.7037902	40.4167754
/inmueble/30779655/	cruz del sur, Estrella, Madrid	800	-3.6686524	40.4098197
/inmueble/30779591/	Gaztambide, Madrid	900	-3.7169624	40.4366125
/inmueble/30779590/	paseo de las delicias, s/n, Delicias, Madrid	620	-3.6941575	40.3991678
/inmueble/25120377/	calle de Lavapiés, 35, Lavapiés-Embajadores, Madrid	500	-3.7021741	40.4098107
/inmueble/30779584/	calle ravena, Arcos, Madrid	800	-3.6159371	40.4185481
/inmueble/30779563/	Conde Orgaz-Piovera, Madrid	4500	-3.6333569	40.4599098
/inmueble/30779550/	calle clara del rey, Prosperidad, Madrid	690	-3.6694554	40.4429305
/inmueble/30779463/	calle alcantara, Lista, Madrid	1300	-3.673673599999999	40.4298107
/inmueble/30779355/	calle del divino valles, 34, Chopera, Madrid	700	-3.698996499999999	40.3965908
/inmueble/30779458/	calle de don ramón de la cruz, Goya, Madrid	800	-3.6783319	40.4288434
/inmueble/30779453/	Goya, Madrid	850	-3.6718503	40.42572089999999
/inmueble/30779449/	calle de don ramón de la cruz, Goya, Madrid	800	-3.6783319	40.4288434
/inmueble/30779413/	galileo, Arapiles, Madrid	1300	-3.710206799999999	40.4352069
/inmueble/30779428/	segre, El Viso, Madrid	1500	-3.683469999999999	40.4507288
/inmueble/30779298/	calle rodríguez marín, 21, El Viso, Madrid	1400	-3.6799524	40.4472745
/inmueble/30779421/	Cuzco-Castillejos, Madrid	1250	-3.69032	40.45827999999999
/inmueble/30779374/	delicias, s/n, Delicias, Madrid	1100	-3.6941606	40.3999166
/inmueble/30779365/	calle capitán haya, 7, Cuatro Caminos, Madrid	3000	-3.6926436	40.4540653
/inmueble/30779347/	calle fuente del saz, Bernabéu-Hispanoamérica, Madrid	530	-3.6797153	40.4552066
/inmueble/30779343/	calle de jaime el conquistador, Chopera, Madrid	750	-3.6981685	40.396121
/inmueble/30779338/	calle de garcía llamas, San Diego, Madrid	475	 -3.6690611	40.3861486
/inmueble/30779236/	calle princesa, 3, Argüelles, Madrid	800	-3.7126755	40.4254039
/inmueble/30779283/	Guindalera, Madrid	2300	-3.6709916	40.4354015
/inmueble/30779293/	calle marqués de santa ana, 12, Malasaña-Universidad, Madrid	440	-3.704892	40.424368
/inmueble/30772158/	calle aldea del fresno, 6, Chopera, Madrid	800	-3.6972275	40.3961118
/inmueble/30779291/	calle julio palacios, 49, La Paz, Madrid	1000	-3.69547	40.48355
/inmueble/30779165/	travesía andrés mellado, 13, Gaztambide, Madrid	650	-3.7143512	40.4348145
/inmueble/30779249/	calle rufino blanco, 17, Fuente del Berro, Madrid	1400	-3.6662718	40.4277844
/inmueble/30779248/	Nueva España, Madrid	550	-3.683678	40.46452559999999
/inmueble/30779243/	calle de modesto lafuente, Nuevos Ministerios-Ríos Rosas, Madrid	1600	-3.7010613	40.4426828
/inmueble/30779235/	paseo de la habana, El Viso, Madrid	1192	-3.6819639	40.45818570000001
/inmueble/30778789/	calle delicias, 34, Palos de Moguer, Madrid	600	-3.6913334	40.4039344
/inmueble/30779224/	calle del cardenal cisneros, Trafalgar, Madrid	750	-3.7023104	40.4324477
/inmueble/30779223/	calle raimundo fernández villaverde, Cuatro Caminos, Madrid	600	-3.691244599999999	40.4507356
/inmueble/30779207/	Guindalera, Madrid	1250	-3.6709916	40.4354015
/inmueble/30779182/	paseo de la habana, Bernabéu-Hispanoamérica, Madrid	790	-3.6797153	40.4552066
/inmueble/30779181/	Goya, Madrid	670	-3.6718503	40.42572089999999
/inmueble/30778127/	calle fuencarral, 47, Malasaña-Universidad, Madrid	1200	-3.7037902	40.4167754
/inmueble/30777803/	avenida del general perón, 32, Cuatro Caminos, Madrid	975	 -3.6942387	40.4521653
/inmueble/30777799/	calle virgen de los reyes, 3, Concepción, Madrid	750	-3.6531178	40.4378103
/inmueble/30779149/	calle félix boix, Nueva España, Madrid	1155	 -3.6869862	40.4632764
/inmueble/30779139/	avenida alfonso xiii, Nueva España, Madrid	1000	-3.6672543	40.4533741
/inmueble/30779114/	marques de urquijo, Argüelles, Madrid	1300	-3.7193761	40.4296009
/inmueble/30779089/	Guindalera, Madrid	650	-3.6709916	40.4354015
/inmueble/30777633/	paseo de san francisco de sales, 7, Vallehermoso, Madrid	1100	-3.716683699999999	40.44011039999999
/inmueble/30777580/	calle princesa, 3, Argüelles, Madrid	1000	-3.7126755	40.4254039
/inmueble/30779049/	calle san roque, 3, Malasaña-Universidad, Madrid	1300	-3.7037902	40.4167754
/inmueble/30779040/	Sol, Madrid	2200	-3.703889	40.416667
/inmueble/30779034/	Malasaña-Universidad, Madrid	550	-3.7115537	40.4299281
/inmueble/30779028/	calle de santa engracia, 98, Almagro, Madrid	750	-3.6999366	40.4381756
/inmueble/30779022/	calle de carlos arniches, Lavapiés-Embajadores, Madrid	1200	-3.7084489	40.4079961
/inmueble/30778969/	serrano, El Viso, Madrid	950	-3.6876077	40.425475
/inmueble/30778962/	calle andres mellado, Gaztambide, Madrid	1300	-3.7142636	40.4364487
/inmueble/30778945/	calle hernán cortés, Chueca-Justicia, Madrid	615	 -3.6976649	40.4226162
/inmueble/30778951/	calle angelita cavero, 7, San Pascual, Madrid	750	-3.6472233	40.44694620000001
/inmueble/30778950/	calle san blas, Huertas-Cortes, Madrid	825	 -3.6999409	40.4142211
/inmueble/30778930/	calle chile, Nueva España, Madrid	900	-3.6758766	40.4570723
/inmueble/30778899/	calle hortaleza, Chueca-Justicia, Madrid	1350	-3.6976649	40.4226162
/inmueble/30778893/	calle corredera baja de san pablo, Malasaña-Universidad, Madrid	1200	-3.7037902	40.4167754
/inmueble/30778888/	Goya, Madrid	650	-3.6718503	40.42572089999999
/inmueble/30778882/	Pacífico, Madrid	700	-3.6779406	40.4041447
/inmueble/30778871/	calle apolonio morales, Nueva España, Madrid	1500	-3.6825367	40.463378
/inmueble/30778862/	calle andres mellado, Gaztambide, Madrid	1200	-3.7142636	40.4364487
/inmueble/2043381/	Campo de la Estrella, 7, Las Tablas, Madrid	1200	-3.67178	40.50441
/inmueble/30778578/	calle san crispín, 4, Puerta del Ángel, Madrid	800	-3.7253443	40.4148208
/inmueble/30778832/	calle capitán blanco argibay, 176, Valdeacederas, Madrid	550	-3.706445899999999	40.4678062
/inmueble/30778820/	calle montesa, Lista, Madrid	900	-3.672115	40.4293537
/inmueble/2139138/	avenida Reina Victoria, 42, Ciudad Universitaria, Madrid	1050	-3.7111677	40.4469047
/inmueble/30778807/	calle cardenal siliceo, Prosperidad, Madrid	800	-3.670175	40.4439502
/inmueble/30778745/	calle de juan bravo, 59, Lista, Madrid	890	-3.6744324	40.4325033
/inmueble/30778785/	calle antonio rodríguez villa, El Viso, Madrid	1800	-3.6814855	40.44360169999999
/inmueble/30778783/	avenida de los toreros, Guindalera, Madrid	750	-3.6665785	40.4323398
/inmueble/30778780/	calle fúcar, Huertas-Cortes, Madrid	400	-3.6999409	40.4142211
/inmueble/26106935/	calle Zamora, 21, Bellas Vistas, Madrid	649	 -3.7081891	40.45156
/inmueble/30778734/	pasaje ancora, 6, Palos de Moguer, Madrid	399	 -3.6896803	40.402474
/inmueble/30778755/	calle de jerónima llorente, Bellas Vistas, Madrid	675	 -3.7074962	40.4541101
/inmueble/30778722/	calle fernando el catolico, Gaztambide, Madrid	1500	-3.7118693	40.4341708
/inmueble/30778717/	calle de chile, Nueva España, Madrid	975	 -3.6758766	40.4570723
/inmueble/30778708/	paseo de recoletos, Chueca-Justicia, Madrid	650	-3.6976649	40.4226162
/inmueble/30778658/	saturno, Casco Histórico de Barajas, Madrid	900	-3.579348	40.4732779
/inmueble/30778627/	calle santa ana alta, 13, Tres Olivos - Valverde, Madrid	475	 -3.6890694	40.4957076
/inmueble/30778624/	calle adolfo bioy casares, 5, Ensanche de Vallecas - Valdecarros, Madrid	700	-3.7037902	40.4167754
/inmueble/30778608/	calle adolfo bioy casares, 5, Ensanche de Vallecas - Valdecarros, Madrid	700	-3.7037902	40.4167754
/inmueble/30778594/	calle medellin, Trafalgar, Madrid	570	-3.6999264	40.43582809999999
/inmueble/336475/	calle Conde Duque, 44, Malasaña-Universidad, Madrid	1100	-3.7037902	40.4167754
/inmueble/30778600/	calle baeza, Prosperidad, Madrid	550	-3.668992299999999	40.4458011
/inmueble/30778599/	calle de diego de león, Castellana, Madrid	1300	-3.6807121	40.4347946
/inmueble/30778587/	calle santa engracia, Nuevos Ministerios-Ríos Rosas, Madrid	800	-3.7010613	40.4426828
/inmueble/28332226/	calle Santa Brígida, 15, Chueca-Justicia, Madrid	550	-3.6976649	40.4226162
/inmueble/30778573/	calle baeza, Prosperidad, Madrid	675	 -3.668992299999999	40.4458011
/inmueble/30778570/	calle de martín de vargas, 25, Acacias, Madrid	700	-3.7013538	40.4023659
/inmueble/30778568/	plaza de las cortes, Huertas-Cortes, Madrid	3600	-3.695923799999999	40.4157381
/inmueble/30778531/	calle de ofelia nieto, 65, Valdezarza, Madrid	700	-3.7099361	40.4616479
/inmueble/30778496/	Fuente del Berro, Madrid	850	-3.6669307	40.4253349
/inmueble/30778490/	calle gaztambide, Vallehermoso, Madrid	960	-3.715359	40.4383437
/inmueble/30778474/	calle hortaleza, Chueca-Justicia, Madrid	650	-3.6976649	40.4226162
/inmueble/30778462/	calle maría panes, Nuevos Ministerios-Ríos Rosas, Madrid	1200	-3.7010613	40.4426828
/inmueble/2145203/	calle Reina Mercedes, 9, Cuatro Caminos, Madrid	1200	-3.698441	40.4511595
/inmueble/30778434/	calle loreto y chicote, 4, Malasaña-Universidad, Madrid	750	-3.7038799	40.4215447
/inmueble/30778430/	calle de castelló, Castellana, Madrid	3000	-3.6810014	40.4314249
/inmueble/30778423/	Almagro, Madrid	2700	-3.695287	40.4338618
/inmueble/30778414/	calle del general díaz porlier, Lista, Madrid	800	-3.676819	40.4299602
/inmueble/27648556/	calle de Américo Castro, 3, Sanchinarro, Madrid	1500	-3.7037902	40.4167754
/inmueble/30778373/	calle francisco lozano, Argüelles, Madrid	1350	-3.7225823	40.43181999999999
/inmueble/29117653/	calle Dulcinea, 24, Cuatro Caminos, Madrid	650	-3.6998787	40.4488425
/inmueble/30773163/	calle de marcelina, 1, Ventilla-Almenara, Madrid	400	-3.6958778	40.4694349
/inmueble/30778353/	calle san bernardo, Arapiles, Madrid	1000	-3.7064506	40.4271669
/inmueble/30778338/	calle de andres mellado, Gaztambide, Madrid	850	-3.7142636	40.4364487
/inmueble/2047766/	calle Luis Peidro, 4, Adelfas, Madrid	800	-3.67339	40.39661
/inmueble/30778260/	calle caleruega, Costillares, Madrid	1400	-3.6704683	40.4806533
/inmueble/30778214/	calle de ricardo ortiz, 60, Ventas, Madrid	775	 -3.6580102	40.4248589
/inmueble/30778202/	calle doctor gómez ulla, Guindalera, Madrid	1350	-3.6677838	40.4299503
/inmueble/30777240/	calle urgel, 6, San Isidro, Madrid	750	-3.7245335	40.3934969
/inmueble/30778063/	calle sandoval, Trafalgar, Madrid	1000	-3.7045866	40.4301222
/inmueble/30778069/	calle diamante, 5, Los Rosales, Madrid	650	-3.6880944	40.3537219
/inmueble/30778068/	calle lagunas de neila, 26, San Andrés, Madrid	650	-3.7068413	40.35186849999999
/inmueble/27320120/	calle Ponzano, 32, Nuevos Ministerios-Ríos Rosas, Madrid	450	-3.7010613	40.4426828
/inmueble/30778039/	calle de don ramón de la cruz, Lista, Madrid	925	 -3.6783319	40.4288434
/inmueble/30777967/	calle monteleón,, Trafalgar, Madrid	550	-3.7047387	40.4293726
/inmueble/26717485/	avenida Alcalde Conde de Mayalde, 35, Sanchinarro, Madrid	1500	-3.7037902	40.4167754
/inmueble/30777950/	Goya, Madrid	698	 -3.6718503	40.42572089999999
/inmueble/30777823/	Chueca-Justicia, Madrid	1300	-3.6976649	40.4226162
/inmueble/30777809/	benito gutierrez, Argüelles, Madrid	2000	-3.7206543	40.4310007
/inmueble/30777798/	Recoletos, Madrid	649	 -3.6866377	40.4238593
/inmueble/30777787/	Lista, Madrid	1500	-3.6769396	40.4312768
/inmueble/30397397/	calle San Isidro Labrador, 8, Palacio, Madrid	880	-3.7128413	40.4104207
/inmueble/30777777/	calle pena de oroel, 2, Casco Histórico de Vallecas, Madrid	490	-3.622103999999999	40.37697720000001
/inmueble/30777754/	calle infanta mercedes, Cuatro Caminos, Madrid	780	-3.6973278	40.4584284
/inmueble/30777743/	Ibiza, Madrid	699	 -3.6750591	40.42006250000001
/inmueble/30777649/	calle embalse de el vellón, 18, Ensanche de Vallecas - Valdecarros, Madrid	680	-3.7037902	40.4167754
/inmueble/2098689/	calle Puebla de Sanabria, 23, San Andrés, Madrid	1100	-3.7079	40.35076
/inmueble/30777703/	paseo de la direccion, 110, Berruguete, Madrid	650	-3.706177799999999	40.4617262
/inmueble/1888638/	calle Sierra de la Estrella, 12, San Diego, Madrid	700	-3.6669035	40.393592
/inmueble/30777720/	calle atocha, Huertas-Cortes, Madrid	1650	-3.6999409	40.4142211
/inmueble/30777717/	calle risco del pájaro, Ciudad Jardín, Madrid	2700	-3.6697592	40.4505105
/inmueble/27371955/	Trafalgar, Madrid	450	-3.7044047	40.4319958
/inmueble/30777671/	calle guzman el bueno, Gaztambide, Madrid	1500	-3.7106121	40.4389131
/inmueble/30777668/	amor de dios, 9, Huertas-Cortes, Madrid	800	-3.6999409	40.4142211
/inmueble/30777655/	calle medido día grande, Palacio, Madrid	700	-3.7114468	40.4100502
/inmueble/30777635/	avenida concha espina, 23, Bernabéu-Hispanoamérica, Madrid	650	-3.6797153	40.4552066
/inmueble/28413114/	calle Buenavista, 12, Lavapiés-Embajadores, Madrid	690	-3.6986847	40.4102906
/inmueble/30777609/	avenida felipe ii, Goya, Madrid	2100	-3.6741935	40.4239222
/inmueble/30777577/	calle fuencarral, Chueca-Justicia, Madrid	900	-3.6976649	40.4226162
/inmueble/30777575/	Palacio, Madrid	685	 -3.7143181	40.4163387
/inmueble/30777557/	calle maldonado, Lista, Madrid	1750	-3.679516999999999	40.4337243
/inmueble/1731805/	calle Ventura de la Vega, 11, Huertas-Cortes, Madrid	1050	-3.6999409	40.4142211
/inmueble/30777543/	calle modesto lafuente, Nuevos Ministerios-Ríos Rosas, Madrid	1250	-3.7010613	40.4426828
/inmueble/27178739/	calle Zurich, 13, Rosas, Madrid	790	-3.6059896	40.421943
/inmueble/30777528/	Gaztambide, Madrid	1500	-3.7169624	40.4366125
/inmueble/30777514/	calle marqués de la ensenada, Chueca-Justicia, Madrid	1100	-3.6976649	40.4226162
/inmueble/30777507/	paseo de la castellana, Almagro, Madrid	1300	-3.6902554	40.4510785
/inmueble/30777505/	calle maria de molina, Castellana, Madrid	2000	-3.6817684	40.4375496
/inmueble/30777504/	Castellana, Madrid	1400	-3.6871448	40.435469
/inmueble/30777502/	avenida de niza, 10, Rosas, Madrid	900	-3.6065312	40.42847039999999
/inmueble/30766262/	calle anastasio aroca, 13, Prosperidad, Madrid	600	-3.6734924	40.4412553
/inmueble/30777483/	calle lope de vega, Huertas-Cortes, Madrid	1250	-3.6999409	40.4142211
/inmueble/30777457/	calle salvador martínez lozano, 29, San Diego, Madrid	400	-3.6700301	40.3941138
/inmueble/30777473/	Arapiles, Madrid	900	-3.706705899999999	40.4343911
/inmueble/30777316/	calle tutor, 57, Argüelles, Madrid	890	-3.718874	40.43199389999999
/inmueble/30777471/	Gaztambide, Madrid	1000	-3.7169624	40.4366125
/inmueble/30777469/	calle princesa, Argüelles, Madrid	1600	-3.7340301	40.43411589999999
/inmueble/30777459/	calle ayala, Goya, Madrid	780	-3.6799194	40.4275227
/inmueble/30777446/	calle de garcía de paredes, Trafalgar, Madrid	1275	 -3.6963997	40.4366999
/inmueble/30776411/	rosa de silva, 11, Cuzco-Castillejos, Madrid	700	-3.6954509	40.4600771
/inmueble/30777433/	calle ciudad de barelona, Adelfas, Madrid	500	-3.6786124	40.4031937
/inmueble/30760576/	calle padilla, 32, Castellana, Madrid	6600	-3.6820168	40.4313975
/inmueble/30777420/	plaza emilio jiménez millas, 2, Argüelles, Madrid	1600	-3.7130943	40.42440819999999
/inmueble/30777410/	sor maria de agreda, Ventas, Madrid	500	-3.6487858	40.4300546
/inmueble/30777396/	paseo de la direccion, 110, Berruguete, Madrid	750	-3.706177799999999	40.4617262
/inmueble/30777350/	calle toledo, Lavapiés-Embajadores, Madrid	1000	-3.7101598	40.40695669999999
/inmueble/30777338/	calle ricardo ortiz, 74, Ventas, Madrid	700	-3.658861899999999	40.4256888
/inmueble/30777325/	calle dracena, Nueva España, Madrid	850	-3.6709051	40.4631236
/inmueble/30777308/	calle carlos y guillermo fernández shaw, Adelfas, Madrid	900	-3.669169	40.4053988
/inmueble/30777274/	calle baeza, Prosperidad, Madrid	675	 -3.668992299999999	40.4458011
/inmueble/28345429/	calle Arroyo de Pozuelo, Aravaca, Madrid	890	-3.8032109	40.4617529
/inmueble/30777255/	Goya, Madrid	799	 -3.6718503	40.42572089999999
/inmueble/30777241/	Arapiles, Madrid	1800	-3.706705899999999	40.4343911
/inmueble/30777236/	calle cervantes, Huertas-Cortes, Madrid	490	-3.6999409	40.4142211
/inmueble/30777229/	calle piamonte, Chueca-Justicia, Madrid	1150	-3.6976649	40.4226162
/inmueble/30777207/	calle colombia, Bernabéu-Hispanoamérica, Madrid	1050	-3.6797153	40.4552066
/inmueble/30777165/	calle de maqueda, 21, Aluche, Madrid	680	-3.7642542	40.3936375
/inmueble/27318744/	calle Libertad, 17, Chueca-Justicia, Madrid	1350	-3.6976649	40.4226162
/inmueble/30777002/	calle ferraz, 60, Argüelles, Madrid	1300	-3.7188828	40.42794749999999
/inmueble/30777121/	Lavapiés-Embajadores, Madrid	1200	-3.7009077	40.4085123
/inmueble/30777089/	avenida pablo iglesias, Vallehermoso, Madrid	1400	-3.7098338	40.4494795
/inmueble/30777015/	Tres Olivos - Valverde, Madrid	600	-3.6918341	40.498423
/inmueble/30777029/	calle de martín de vargas, Acacias, Madrid	700	-3.7024051	40.4035146
/inmueble/30777014/	paseo de la habana, El Viso, Madrid	1400	-3.6819639	40.45818570000001
/inmueble/30777020/	calle blasco de garay, 70, Arapiles, Madrid	750	-3.7111697	40.4364979
/inmueble/30777006/	bolívar, Delicias, Madrid	750	-3.6916055	40.3922778
/inmueble/30777003/	paseo de recoletos, Chueca-Justicia, Madrid	1000	-3.6976649	40.4226162
/inmueble/30776990/	calle clara del rey, Prosperidad, Madrid	1650	-3.6694554	40.4429305
/inmueble/30776940/	calle silva, 18, Malasaña-Universidad, Madrid	600	-3.7037902	40.4167754
/inmueble/30776927/	avenida de moratalaz, Marroquina, Madrid	750	-3.6507823	40.4058897
/inmueble/30776569/	calle marqués de santa ana, 22, Malasaña-Universidad, Madrid	750	-3.7042184	40.4248594
/inmueble/30776649/	calle de orense, 6, Cuatro Caminos, Madrid	1200	-3.6952439	40.447157
/inmueble/30776372/	calle del padre xifré, 3, Prosperidad, Madrid	775	 -3.6729284	40.439834
/inmueble/30775835/	calle núñez de arce, 4, Huertas-Cortes, Madrid	850	-3.6999409	40.4142211
/inmueble/30776880/	calle monteleón, 37, Trafalgar, Madrid	600	-3.7045407	40.43086479999999
/inmueble/30776839/	Pacífico, Madrid	1400	-3.6779406	40.4041447
/inmueble/30776825/	pilar de zaragoza, Guindalera, Madrid	2000	-3.6714337	40.4357719
/inmueble/30776813/	calle del doctor esquerdo, Goya, Madrid	1950	-3.6707603	40.4133586
/inmueble/30775402/	calle alucas, 4, Pueblo Nuevo, Madrid	469	 -3.6366732	40.4326826
/inmueble/30775117/	calle santa virgilia, 9, Pinar del Rey, Madrid	750	-3.6432484	40.47718340000001
/inmueble/30776754/	calle de claudio coello, Castellana, Madrid	2500	-3.6860046	40.4292135
/inmueble/30776740/	calle fuencarral, Malasaña-Universidad, Madrid	3000	-3.7037902	40.4167754
/inmueble/30774911/	calle de cartagena, 42, Guindalera, Madrid	850	-3.6699639	40.4354103
/inmueble/30774673/	calle de juan bravo, 45, Lista, Madrid	1200	-3.6768225	40.4326517
/inmueble/30774436/	calle de diego de león, 29, Castellana, Madrid	1600	-3.6813516	40.4350071
/inmueble/30776714/	calle juan pradillo, Bellas Vistas, Madrid	600	-3.7085276	40.4531779
/inmueble/30776709/	calle fuencarral, 138, Trafalgar, Madrid	1100	-3.7034078	40.4318474
/inmueble/2115669/	calle Murillo, 3, Trafalgar, Madrid	1200	-3.7007106	40.4333943
/inmueble/30776702/	calle de la virgen de aránzazu, Tres Olivos - Valverde, Madrid	850	-3.6899377	40.4861131
/inmueble/30776689/	calle guerrero mendoza, Ciudad Jardín, Madrid	1800	-3.6710259	40.4517935
/inmueble/30773661/	calle federico grases, 41, Puerta Bonita, Madrid	500	-3.743598699999999	40.3757546
/inmueble/30776656/	fernando el católico, Gaztambide, Madrid	1750	-3.7118693	40.4341708
/inmueble/30776655/	calle fortuny, 39, Almagro, Madrid	1300	-3.6903713	40.4324273
/inmueble/30776662/	Gaztambide, Madrid	700	-3.7169624	40.4366125
/inmueble/30773160/	calle puerto de maspalomas, 9, Pilar, Madrid	750	-3.7141752	40.4786538
/inmueble/2129396/	calle Cerro Blanco, 12, Zofío, Madrid	650	-3.7163248	40.3819154
/inmueble/30772503/	calle de torrelaguna, 110, Colina, Madrid	650	-3.660539	40.4554487
/inmueble/30776605/	calle de orense, Cuatro Caminos, Madrid	825	 -3.694875399999999	40.4540008
/inmueble/30772390/	calle cocherón de la villa, 17, Palomeras sureste, Madrid	550	-3.6319601	40.381875
/inmueble/2061123/	calle Mauricio Legendre, 29, Castilla, Madrid	1000	-3.6861571	40.4722645
/inmueble/30776593/	calle ferraz, 51, Argüelles, Madrid	790	-3.7209845	40.4297399
/inmueble/26479423/	calle Arriaza, 8, Argüelles, Madrid	750	-3.7158733	40.4211992
/inmueble/30771372/	costanilla de san andrés, 14, Palacio, Madrid	1450	-3.7118119	40.4126269
/inmueble/30776546/	calle de fernando el católico, Gaztambide, Madrid	1400	-3.7118693	40.4341708
/inmueble/30776545/	calle del parque de eugenia de montijo, Vista Alegre, Madrid	550	-3.7529047	40.379213
/inmueble/30776551/	calle hortaleza, Chueca-Justicia, Madrid	1350	-3.6976649	40.4226162
/inmueble/27713973/	calle Divino Pastor, 11, Malasaña-Universidad, Madrid	670	-3.7037902	40.4167754
/inmueble/30776526/	Gaztambide, Madrid	750	-3.7169624	40.4366125
/inmueble/1954757/	paseo de la Habana, 196, Nueva España, Madrid	1150	-3.6801896	40.4622834
/inmueble/30776513/	calle luchana, 30, Trafalgar, Madrid	1300	-3.6990126	40.4312163
/inmueble/30776507/	calle carcagente, Puerta del Ángel, Madrid	780	-3.7372491	40.409137
/inmueble/30776473/	buenavista, 12, Lavapiés-Embajadores, Madrid	950	-3.6986847	40.4102906
/inmueble/30776446/	Canillas, Madrid	750	-3.643235799999999	40.4636942
/inmueble/30776448/	calle santa juliana, Bellas Vistas, Madrid	565	 -3.7061629	40.4523758
/inmueble/30776442/	paseo de la florida, Casa de Campo, Madrid	800	-3.7223538	40.4222499
/inmueble/30776441/	corazon de maria, Prosperidad, Madrid	1200	-3.6670677	40.4446181
/inmueble/30776429/	paseo extremadura, Lucero, Madrid	500	-3.759799399999999	40.4012412
/inmueble/30776413/	Palacio, Madrid	3000	-3.7143181	40.4163387
/inmueble/30776396/	calle principe de vergara, Prosperidad, Madrid	650	-3.6789691	40.4386979
/inmueble/30776152/	calle del doctor esquerdo, 7, Fuente del Berro, Madrid	800	-3.6683114	40.4267155
/inmueble/30776404/	calle del general oraá, Castellana, Madrid	800	-3.6821174	40.4360933
/inmueble/30776403/	calle rafael calvo, Almagro, Madrid	875	 -3.6932444	40.4339992
/inmueble/30776384/	calle luis de salazar, Prosperidad, Madrid	1200	-3.6663115	40.4473799
/inmueble/30776383/	calle higueras, Lucero, Madrid	650	-3.745236	40.4049857
/inmueble/30776366/	paseo de las yeserías, Acacias, Madrid	1200	-3.7097427	40.3989992
/inmueble/30776377/	calle diego de leon, Castellana, Madrid	1200	-3.6807121	40.4347946
/inmueble/30776354/	San Pascual, Madrid	1200	-3.6574637	40.4421999
/inmueble/30776358/	calle fernando el católico, Gaztambide, Madrid	1500	-3.7118693	40.4341708
/inmueble/30776352/	calle sargento barriga, San Andrés, Madrid	500	-3.7041537	40.3434231
/inmueble/30776346/	Fuente del Berro, Madrid	3200	-3.6669307	40.4253349
/inmueble/30776343/	calle ginzo de limia, 60, La Paz, Madrid	1000	-3.705825899999999	40.4836296
/inmueble/30776339/	calle cracovia, Rosas, Madrid	700	-3.6054689	40.4232975
/inmueble/30776313/	Argüelles, Madrid	2500	-3.721413	40.4294136
/inmueble/30776308/	travesía de trujillo, 1, Sol, Madrid	1175	 -3.7071956	40.4185908
/inmueble/30776238/	paseo de la castellana, Nueva España, Madrid	990	-3.6891635	40.45424089999999
/inmueble/26278256/	calle Olivar, 52, Lavapiés-Embajadores, Madrid	595	 -3.7014779	40.40936749999999
/inmueble/27225281/	calle Olite, Bellas Vistas, Madrid	400	-3.7072055	40.450971
/inmueble/30776186/	gabriel gomez, Buena Vista, Madrid	530	-3.7037902	40.4167754
/inmueble/30776187/	calle san martã­n de porres, 41, Ciudad Universitaria, Madrid	700	-3.7302682	40.4459167
/inmueble/30776180/	calle de juan ramón jiménez, Bernabéu-Hispanoamérica, Madrid	1300	-3.6797153	40.4552066
/inmueble/27836379/	calle Manuel Pombo Angulo, Sanchinarro, Madrid	750	-3.7037902	40.4167754
/inmueble/30776146/	mauricio legendre, Castilla, Madrid	925	 -3.6843	40.4763493
/inmueble/30775852/	Gaztambide, Madrid	700	-3.7169624	40.4366125
/inmueble/30776145/	calle vicente ferrer, 60, Malasaña-Universidad, Madrid	750	-3.7037902	40.4167754
/inmueble/30776142/	paseo de la florida, Casa de Campo, Madrid	1100	-3.7223538	40.4222499
/inmueble/30776141/	calle del corazón de maría, Prosperidad, Madrid	1200	-3.6670677	40.4446181
/inmueble/30776100/	calle del amparo, 15, Lavapiés-Embajadores, Madrid	550	-3.7036926	40.4105683
/inmueble/30776088/	calle de mauricio legendre, Castilla, Madrid	1300	-3.6843	40.4763493
/inmueble/30776005/	calle reina, Chueca-Justicia, Madrid	1200	-3.6976649	40.4226162
/inmueble/30775994/	calle puerto arlaban, San Diego, Madrid	450	-3.6675888	40.386242
/inmueble/30775990/	embajadores, Chopera, Madrid	500	-3.7025134	40.4045915
/inmueble/30775977/	calle vallehermoso,, Arapiles, Madrid	700	-3.7085693	40.4353487
/inmueble/30775984/	calle josé antonio zapata, 2, Legazpi, Madrid	760	-3.6916617	40.3861662
/inmueble/30775974/	calle ribadavia, 12, Pilar, Madrid	850	-3.7076376	40.4721312
/inmueble/30775972/	canarias, Palos de Moguer, Madrid	900	-3.692354399999999	40.401826
/inmueble/30775979/	calle antonio machado, Valdezarza, Madrid	800	-3.7193423	40.4650854
/inmueble/30775864/	calle de costa rica, 9, Nueva España, Madrid	750	-3.6752666	40.458744
/inmueble/30775962/	calle josé antonio zapata, 2, Legazpi, Madrid	760	-3.6916617	40.3861662
/inmueble/30775910/	calle capiscol, Las Tablas, Madrid	800	-3.674101399999999	40.50710189999999
/inmueble/30775905/	calle gabriel díez, Cuatro Caminos, Madrid	700	-3.7004432	40.45292999999999
/inmueble/30775899/	Campo de las Naciones-Corralejos, Madrid	1150	-3.6162032	40.4638952
/inmueble/26511346/	calle Orfila, Almagro, Madrid	1300	-3.692216499999999	40.427332
/inmueble/30775888/	calle caravaca, Lavapiés-Embajadores, Madrid	950	-3.7025797	40.4090359
/inmueble/30775875/	avenida gran vía del sureste, Ensanche de Vallecas - Valdecarros, Madrid	750	-3.59231	40.36051
/inmueble/30775837/	calle amaniel, Malasaña-Universidad, Madrid	700	-3.7037902	40.4167754
/inmueble/30775833/	calle comercial, Palomeras Bajas, Madrid	550	-3.654107299999999	40.3857554
/inmueble/30775830/	mancebos, 6, Palacio, Madrid	1200	-3.712138	40.4119865
/inmueble/28021954/	calle Princesa, 3, Argüelles, Madrid	1600	-3.7126755	40.4254039
/inmueble/30775819/	Apóstol Santiago, Madrid	800	-3.658056	40.476389
/inmueble/30775813/	calle altamirano, 13, Argüelles, Madrid	750	-3.719382	40.4305888
/inmueble/25959685/	calle Claudio Coello, Recoletos, Madrid	2700	-3.6860046	40.4292135
/inmueble/30775754/	calle alberto aguilera, Gaztambide, Madrid	2000	-3.7105286	40.4299992
/inmueble/26093281/	calle Vallehermoso, 50, Arapiles, Madrid	900	-3.7082666	40.43565950000001
/inmueble/30775731/	magallanes, Arapiles, Madrid	950	-3.7056934	40.4344928
/inmueble/30775668/	calle galileo, 12, Arapiles, Madrid	1550	-3.7103047	40.430918
/inmueble/26671935/	calle Valentín Aguirre, San Pascual, Madrid	700	-3.6556294	40.4389898
/inmueble/30775707/	calle altamirano, 13, Argüelles, Madrid	750	-3.719382	40.4305888
/inmueble/28820103/	calle de los Peñascales, 45, Fuente del Berro, Madrid	650	-3.663887	40.4236868
/inmueble/30775671/	calle alberto alcocer, 22, Bernabéu-Hispanoamérica, Madrid	740	-3.6797153	40.4552066
/inmueble/28073887/	calle Jesús y María, 34, Lavapiés-Embajadores, Madrid	470	-3.7028228	40.4102933
/inmueble/30775588/	calle de claudio coello, 26, Recoletos, Madrid	2700	-3.6867235	40.42350680000001
/inmueble/30774455/	calle fúcar, 11, Huertas-Cortes, Madrid	800	-3.6999409	40.4142211
/inmueble/30775547/	calle navas de tolosa, Sol, Madrid	700	-3.7068021	40.4191942
/inmueble/30775558/	calle general ampudia, Vallehermoso, Madrid	1500	-3.7151976	40.44271930000001
/inmueble/30775484/	calle de pradillo, Ciudad Jardín, Madrid	1800	-3.672636	40.448894
/inmueble/1904591/	calle Fernando el Católico, 48, Gaztambide, Madrid	625	 -3.7126203	40.4343077
/inmueble/30775468/	barquillo, Chueca-Justicia, Madrid	450	-3.6976649	40.4226162
/inmueble/30775435/	Cuatro Caminos, Madrid	800	-3.700726599999999	40.4510198
/inmueble/30775444/	Chueca-Justicia, Madrid	1150	-3.6976649	40.4226162
/inmueble/28728413/	calle de Téllez, 30, Pacífico, Madrid	1200	-3.6792201	40.4020526
/inmueble/30775407/	calle agustín calvo, Canillas, Madrid	750	-3.649325499999999	40.4641179
/inmueble/30775383/	casarrubuelos, Arapiles, Madrid	650	-3.7075735	40.4345031
/inmueble/30775379/	calle juan del risco, 23, Berruguete, Madrid	700	-3.7041846	40.4590584
/inmueble/30775303/	calle bolivia, 36, Nueva España, Madrid	500	-3.6775386	40.4593215
/inmueble/30775372/	calle del general oraá, Lista, Madrid	2500	-3.6821174	40.4360933
/inmueble/30775336/	guzman el bueno, Gaztambide, Madrid	1300	-3.7143464	40.43055529999999
/inmueble/30772016/	calle de alcántara, 23, Goya, Madrid	650	-3.6739624	40.4278951
/inmueble/26970726/	calle de Valderribas, 35, Pacífico, Madrid	550	-3.676468299999999	40.4049883
/inmueble/30775308/	montesa, Lista, Madrid	650	-3.673048499999999	40.429038
/inmueble/30775304/	calle de castillo de simancas, Simancas, Madrid	500	-3.6260571	40.4302159
/inmueble/30775280/	calle felipe campos, El Viso, Madrid	550	-3.6803048	40.4432183
/inmueble/30775235/	Recoletos, Madrid	3300	-3.6866377	40.4238593
/inmueble/451014/	calle Monasterio de Montesclaros, 4, Montecarmelo, Madrid	785	 -3.7037902	40.4167754
/inmueble/29532899/	Arapiles, Madrid	550	-3.706705899999999	40.4343911
/inmueble/30775189/	calle lagasca, Recoletos, Madrid	700	-3.6849347	40.429176
/inmueble/30775162/	calle de alcalá, Guindalera, Madrid	950	-3.6617021	40.431159
/inmueble/30775097/	calle churruca, Chueca-Justicia, Madrid	600	-3.6976649	40.4226162
/inmueble/30775044/	pasaje cobena, 1, Marroquina, Madrid	680	-3.6327127	40.4070087
/inmueble/30775036/	calle lagasca, Recoletos, Madrid	600	-3.6849347	40.429176
/inmueble/30771534/	calle columela, 2, Recoletos, Madrid	1400	-3.6880934	40.4211082
/inmueble/26289107/	calle José Antonio Zapata, 2, Legazpi, Madrid	760	-3.6916617	40.3861662
/inmueble/30774977/	calle de alcalá, 174, Fuente del Berro, Madrid	1000	-3.6662108	40.4291578
/inmueble/30743262/	calle benito gutiérrez, 39, Argüelles, Madrid	550	-3.7211147	40.4307212
/inmueble/30774953/	calle jenara gómez, Buena Vista, Madrid	390	-3.7604151	40.3682944
/inmueble/30774949/	paseo de la castellana, 193, Ventilla-Almenara, Madrid	630	-3.6958778	40.4694349
/inmueble/30774933/	calle josé cano heredia, 3, Canillejas, Madrid	650	-3.6138462	40.4483301
/inmueble/27647165/	calle de las Huertas, 23, Huertas-Cortes, Madrid	500	-3.6999409	40.4142211
/inmueble/30774861/	ana de austria, 53, Sanchinarro, Madrid	1200	-3.655867899999999	40.4963248
/inmueble/30774840/	Vallehermoso, Madrid	2250	-3.711667	40.442778
/inmueble/30774839/	Fuente del Berro, Madrid	1100	-3.6669307	40.4253349
/inmueble/29799221/	calle Basilica, Cuatro Caminos, Madrid	510	-3.6964677	40.449297
/inmueble/30774806/	Vallehermoso, Madrid	1100	-3.711667	40.442778
/inmueble/30774805/	Vinateros, Madrid	750	-3.6453603	40.4046011
/inmueble/30774794/	Lucero, Madrid	600	-3.7524257	40.40362140000001
/inmueble/30774792/	Gaztambide, Madrid	950	-3.7169624	40.4366125
/inmueble/28813953/	Valdebernardo - Valderribas, Madrid	750	-3.7037902	40.4167754
/inmueble/28431228/	avenida Isabel de Valois, 28, Sanchinarro, Madrid	650	-3.7037902	40.4167754
/inmueble/30774509/	paseo de la habana, El Viso, Madrid	850	-3.6819639	40.45818570000001
/inmueble/30774461/	calle ramón de santillán, Bernabéu-Hispanoamérica, Madrid	1450	-3.6797153	40.4552066
/inmueble/30774388/	calle baños de montemayor, 5, Acacias, Madrid	820	-3.70357	40.398
/inmueble/30774358/	calle joaquín maría lópez, Gaztambide, Madrid	1200	-3.7129638	40.4376442
/inmueble/30774277/	calle estella, 8, Las Tablas, Madrid	900	-3.6750348	40.4966859
/inmueble/30774228/	calle de martínez villergas, 3, San Pascual, Madrid	550	-3.6523286	40.4394564
/inmueble/30774075/	gaztambide, Vallehermoso, Madrid	1300	-3.7085693	40.4353487
/inmueble/30774071/	calle sierra de atapuerca, Las Tablas, Madrid	1150	-3.6694512	40.5035417
/inmueble/30774050/	calle porfirio, Berruguete, Madrid	750	-3.7048516	40.4628682
/inmueble/30774048/	calle bravo murillo, Berruguete, Madrid	600	-3.710829699999999	40.4576107
/inmueble/30774037/	calle bravo murillo, Berruguete, Madrid	800	-3.710829699999999	40.4576107
/inmueble/28260742/	calle los Peñascales, 35, Fuente del Berro, Madrid	730	-3.664464	40.423813
/inmueble/30773882/	avenida ferrol, Pilar, Madrid	800	-3.7069524	40.4753836
/inmueble/30773812/	calle ana de austria, Sanchinarro, Madrid	1150	-3.6539407	40.5005307
/inmueble/30773790/	avenida del camino de santiago, Las Tablas, Madrid	1050	-3.6722913	40.5058819
/inmueble/30773779/	Nuevos Ministerios-Ríos Rosas, Madrid	650	-3.692299999999999	40.446803
/inmueble/30773775/	calle joaquín maría lópez, Arapiles, Madrid	850	-3.7129638	40.4376442
/inmueble/30773770/	Arapiles, Madrid	750	-3.706705899999999	40.4343911
/inmueble/30773761/	Argüelles, Madrid	540	-3.721413	40.4294136
/inmueble/29768658/	Huertas-Cortes, Madrid	850	-3.6981578	40.4135026
/inmueble/30773758/	Malasaña-Universidad, Madrid	1000	-3.7115537	40.4299281
/inmueble/30773633/	Sanchinarro, Madrid	750	-3.6678172	40.4923392
/inmueble/30773548/	calle jose villena, Ventas, Madrid	1200	-3.6556366	40.4309465
/inmueble/30773492/	Sanchinarro, Madrid	1050	-3.6678172	40.4923392
/inmueble/30773477/	calle de los reyes, 10, Malasaña-Universidad, Madrid	1250	-3.7097129	40.4241173
/inmueble/30773476/	calle de eugenia de montijo, 66, Vista Alegre, Madrid	500	-3.7464203	40.3799956
/inmueble/30773473/	calle de navalmoral de la mata, Águilas, Madrid	500	-3.7776286	40.376473
/inmueble/28986719/	calle Claudio Coello, Recoletos, Madrid	1400	-3.6860046	40.4292135
/inmueble/30773311/	calle mariano matesanz, 4, Butarque, Madrid	500	-3.682904199999999	40.3531963
/inmueble/28659663/	calle Marques de Leis, 16, Cuzco-Castillejos, Madrid	500	-3.6954509	40.4600771
/inmueble/25714265/	calle Telémaco, 14, Salvador, Madrid	600	-3.6440106	40.4474958
/inmueble/30773270/	calle orden, 3, Cuatro Caminos, Madrid	550	-3.7018342	40.447584
/inmueble/30773285/	calle de juan bravo, Castellana, Madrid	3500	-3.6795969	40.4327207
/inmueble/30773255/	calle constancia, 44, Prosperidad, Madrid	700	-3.671607499999999	40.4434293
/inmueble/30773245/	Goya, Madrid	2950	-3.6718503	40.42572089999999
/inmueble/28006171/	calle Castelo Branco, 4, Abrantes, Madrid	570	-3.7258993	40.3823651
/inmueble/26397025/	calle de Narciso Serra, 5, Pacífico, Madrid	725	 -3.679551	40.40434399999999
/inmueble/2002837/	calle San Bernardo, 42, Malasaña-Universidad, Madrid	900	-3.7075831	40.425249
/inmueble/30773168/	Guindalera, Madrid	650	-3.6709916	40.4354015
/inmueble/30773158/	calle de eraso, Guindalera, Madrid	1200	-3.670207699999999	40.4345877
/inmueble/30773137/	Chueca-Justicia, Madrid	2650	-3.6976649	40.4226162
/inmueble/26564337/	calle de Alberto Aguilera, 52, Gaztambide, Madrid	525	 -3.7127607	40.4304465
/inmueble/30773089/	paseo imperial, 29, Imperial, Madrid	600	-3.7170634	40.4079171
/inmueble/26283011/	calle de Vicente Blasco Ibáñez, 15, Sanchinarro, Madrid	1250	-3.7037902	40.4167754
/inmueble/30773059/	calle de américo castro, 104, Sanchinarro, Madrid	1100	-3.7037902	40.4167754
/inmueble/30773050/	calle río nervión, Pueblo Nuevo, Madrid	650	-3.6368691	40.4272915
/inmueble/30773032/	calle de arcos de jalón, Arcos, Madrid	550	-3.618381099999999	40.4231546
/inmueble/30773049/	avenida de niza, Rosas, Madrid	800	-3.6071014	40.4301985
/inmueble/29507717/	calle Telares, Amposta, Madrid	475	 -3.6213989	40.4276268
/inmueble/28562395/	calle Zayas, Simancas, Madrid	500	-3.6252927	40.4286348
/inmueble/30773048/	calle valdecanillas, Simancas, Madrid	675	 -3.6273422	40.4316158
/inmueble/30773047/	calle portugalete, Pueblo Nuevo, Madrid	650	-3.635257	40.4264157
/inmueble/30773028/	calle de callejo, 7, San Diego, Madrid	300	-3.6706385	40.3895994
/inmueble/30773025/	calle guarromán, 2, Entrevías, Madrid	425	 -3.6652825	40.3743359
/inmueble/28590932/	calle Vallehermoso, 16, Arapiles, Madrid	1400	-3.7087352	40.4313751
/inmueble/2059738/	Muela de San Juan, 17, Casco Histórico de Vallecas, Madrid	450	-3.618291	40.3745345
/inmueble/29239124/	paseo Perales, 15, Puerta del Ángel, Madrid	470	-3.7382632	40.4048977
/inmueble/30772942/	calle calvo asensio, 3, Argüelles, Madrid	1300	-3.7126444	40.4320688
/inmueble/30772925/	calle de josé sánchez pescador, Pacífico, Madrid	800	-3.6786664	40.40633709999999
/inmueble/27310441/	calle Lopez de Hoyos, 184, Prosperidad, Madrid	980	-3.668664299999999	40.44774899999999
/inmueble/30772908/	calle juan álvarez mendizábal, Argüelles, Madrid	1300	-3.7176305	40.4277581
/inmueble/30772877/	calle tudelilla, Bellas Vistas, Madrid	1100	-3.709995499999999	40.4518932
/inmueble/30772872/	calle benito gutiérrez, Argüelles, Madrid	1500	-3.7206543	40.4310007
/inmueble/30772862/	calle carvajales, Acacias, Madrid	1100	-3.702421699999999	40.3996084
/inmueble/30772869/	calle general aranaz, Quintana, Madrid	775	 -3.6415146	40.4453095
/inmueble/30772855/	calle guindos, 5, Valdeacederas, Madrid	675	 -3.6999695	40.4666176
/inmueble/30772774/	calle argumosa, 8, Lavapiés-Embajadores, Madrid	750	-3.6994584	40.4081317
/inmueble/30772838/	calle antonio zamora, 16, Puerta del Ángel, Madrid	680	-3.7266861	40.4133613
/inmueble/30772821/	calle paloma, Palacio, Madrid	650	-3.7118441	40.4084062
/inmueble/30772809/	calle villanueva, Recoletos, Madrid	700	-3.6869861	40.4224629
/inmueble/30772802/	calle casino, 8, Lavapiés-Embajadores, Madrid	900	-3.7049709	40.40692629999999
/inmueble/30772751/	calle diego de león, Castellana, Madrid	600	-3.6807121	40.4347946
/inmueble/30772440/	calle de manuel maroto, 32, San Diego, Madrid	490	-3.6690344	40.388351
/inmueble/29587266/	calle de Ayala, 115, Goya, Madrid	650	-3.6693691	40.4270518
/inmueble/30772663/	Sol, Madrid	1200	-3.703889	40.416667
/inmueble/30772639/	calle fernando poo, 22, Chopera, Madrid	550	-3.6998809	40.3975125
/inmueble/30772621/	calle teruel, 32, Cuatro Caminos, Madrid	590	-3.7009616	40.4512392
/inmueble/30772615/	calle josefina garcía, 3, Casco Histórico de Vallecas, Madrid	395	 -3.6226009	40.3753555
/inmueble/30772587/	Niño Jesús, Madrid	1200	-3.6767163	40.4101609
/inmueble/30772582/	calle del doctor esquerdo, Goya, Madrid	1950	-3.6707603	40.4133586
/inmueble/30772556/	Guindalera, Madrid	1800	-3.6709916	40.4354015
/inmueble/30772485/	avenida del campo de calatrava, 9, Tres Olivos - Valverde, Madrid	1250	-3.6923603	40.5005787
/inmueble/28267927/	calle Santísima Trinidad, 23, Trafalgar, Madrid	560	-3.7011482	40.4366953
/inmueble/30772536/	calle nuñez de balboa, Castellana, Madrid	690	-3.6823487	40.4302293
/inmueble/1380016/	calle Churruca, Chueca-Justicia, Madrid	700	-3.6976649	40.4226162
/inmueble/28172916/	plaza de Padrón, 8, Pilar, Madrid	650	-3.7064303	40.476935
/inmueble/30772377/	plaza francisco morano, 3, Imperial, Madrid	800	-3.716772	40.4045524
/inmueble/1777006/	calle Juan Alvarez Mendizábal, 4, Argüelles, Madrid	840	-3.7137455	40.4236951
/inmueble/28761607/	avenida ensanche de Vallecas, 76, Ensanche de Vallecas - Valdecarros, Madrid	750	-3.7037902	40.4167754
/inmueble/30772382/	Recoletos, Madrid	1100	-3.6866377	40.4238593
/inmueble/30772355/	calle de torrelaguna, 65, San Pascual, Madrid	884	 -3.6544961	40.4435467
/inmueble/30772336/	calle de pradillo, Ciudad Jardín, Madrid	3300	-3.672636	40.448894
/inmueble/30772349/	calle luisa muriel, 3, Los Cármenes, Madrid	850	-3.7327903	40.4045157
/inmueble/30772344/	Pacífico, Madrid	550	-3.6779406	40.4041447
/inmueble/30772313/	Recoletos, Madrid	1200	-3.6866377	40.4238593
/inmueble/2129148/	calle Augustobriga, 7, Los Rosales, Madrid	540	-3.684398799999999	40.3566251
/inmueble/30772296/	Niño Jesús, Madrid	1800	-3.6767163	40.4101609
/inmueble/30772293/	Sol, Madrid	1100	-3.703889	40.416667
/inmueble/30772292/	calle fray ceferino gonzález, 5, Lavapiés-Embajadores, Madrid	590	-3.7060136	40.4088498
/inmueble/28473588/	calle Fucar, Huertas-Cortes, Madrid	1100	-3.6999409	40.4142211
/inmueble/30772284/	calle velayos, Ciudad Universitaria, Madrid	1000	-3.7264166	40.4664089
/inmueble/30772281/	calle caravaca, Lavapiés-Embajadores, Madrid	950	-3.7025797	40.4090359
/inmueble/30772279/	calle joaquín maría lópez, Arapiles, Madrid	1800	-3.7129638	40.4376442
/inmueble/30772266/	Castellana, Madrid	1050	-3.6871448	40.435469
/inmueble/28308042/	calle Juan de Urbieta, Pacífico, Madrid	450	-3.6754525	40.40701929999999
/inmueble/27509175/	calle Ana de Austria, 47, Sanchinarro, Madrid	1720	-3.655867899999999	40.4963248
/inmueble/30772250/	calle abades, 16, Lavapiés-Embajadores, Madrid	1100	-3.7053458	40.4100748
/inmueble/30772178/	calle platino, 29, Los Rosales, Madrid	450	-3.689067199999999	40.3490508
/inmueble/30772110/	calle fuente del berro, Goya, Madrid	950	-3.6709081	40.4249559
/inmueble/30772056/	calle azahar, 6, Cuzco-Castillejos, Madrid	650	-3.6954509	40.4600771
/inmueble/30772052/	calle toledo, Imperial, Madrid	650	-3.7109544	40.4081036
/inmueble/30771216/	calle san vicente ferrer, 6, Malasaña-Universidad, Madrid	700	-3.702213699999999	40.4256438
/inmueble/30771181/	calle chirivel, 2, Apóstol Santiago, Madrid	700	-3.662225099999999	40.4787596
/inmueble/30724343/	calle de ayala, 98, Goya, Madrid	1200	-3.676050899999999	40.4272435
/inmueble/30771043/	plaza de españa, 18, Argüelles, Madrid	2700	-3.7122195	40.4242498
/inmueble/30772030/	Goya, Madrid	700	-3.6718503	40.42572089999999
/inmueble/30772017/	calle pena auseba, 10, Mirasierra, Madrid	1100	-3.701065	40.4939291
/inmueble/30770951/	calle sierra de pajarejo, 7, Valdemarín, Madrid	800	-3.79731	40.46671
/inmueble/30771992/	calle quesada, 3, Trafalgar, Madrid	650	-3.7006525	40.433682
/inmueble/30771965/	avenida aster, Bernabéu-Hispanoamérica, Madrid	2600	-3.6797153	40.4552066
/inmueble/30771928/	calle de la sierra de encinares, Casco Histórico de Vallecas, Madrid	525	 -3.620414	40.3810653
/inmueble/30771918/	calle alberto aguilera, 4, Arapiles, Madrid	1000	-3.70647	40.4297799
/inmueble/30771913/	calle castelar, 34, Guindalera, Madrid	800	-3.6654521	40.4306677
/inmueble/30771854/	calle de san andrés, 36, Malasaña-Universidad, Madrid	780	-3.7033931	40.4280623
/inmueble/30771905/	calle corregidor señor de la elipa, 15, Marroquina, Madrid	600	-3.6507484	40.4114064
/inmueble/30767764/	avenida de los arces, 17, Palomas, Madrid	1000	-3.6193662	40.4548005
/inmueble/30771876/	Malasaña-Universidad, Madrid	550	-3.7115537	40.4299281
/inmueble/28597125/	calle Villa de Marín, 26, La Paz, Madrid	900	-3.6981558	40.4766287
/inmueble/30771844/	avenida pablo iglesias, Vallehermoso, Madrid	1100	-3.7098338	40.4494795
/inmueble/30771824/	avenida reina victoria, Vallehermoso, Madrid	1500	-3.7094823	40.4470513
/inmueble/30771830/	calle isla sumatra, 24, Tres Olivos - Valverde, Madrid	900	-3.6866827	40.4954347
/inmueble/30771823/	plaza ciudad de viena, 2, Ciudad Universitaria, Madrid	1050	-3.7163347	40.4478574
/inmueble/30771814/	calle fernandez de los ríos, Gaztambide, Madrid	750	-3.711432	40.4352441
/inmueble/30771736/	calle molino viejo, 23, Valdebernardo - Valderribas, Madrid	750	-3.7037902	40.4167754
/inmueble/30771811/	avenida menéndez pelayo, Ibiza, Madrid	1000	-3.6769623	40.4131279
/inmueble/29187655/	calle de Sierra de la Estrella, 14, San Diego, Madrid	490	-3.6668172	40.3935324
/inmueble/30771790/	calle catalina suarez, 10, Adelfas, Madrid	500	-3.6722286	40.4006518
/inmueble/30771769/	calle gravina, Chueca-Justicia, Madrid	500	-3.6976649	40.4226162
/inmueble/30771745/	travesía de los señores de luzon, 1, Palacio, Madrid	870	-3.710840499999999	40.4160087
/inmueble/30771694/	calle blasco de garay, Arapiles, Madrid	850	-3.7114695	40.4347403
/inmueble/30771647/	calle condesa de venadito, 13, San Pascual, Madrid	1500	-3.6508526	40.44605670000001
/inmueble/1232379/	calle Ibiza, 16, Ibiza, Madrid	650	-3.6766745	40.4182687
/inmueble/30771648/	avenida de menéndez pelayo, 32, Pacífico, Madrid	895	 -3.6802171	40.4056747
/inmueble/30771633/	voluntarios catalanes, 66, Valdeacederas, Madrid	925	 -3.7034332	40.4656747
/inmueble/1795847/	calle Limón, 20, Malasaña-Universidad, Madrid	700	-3.7037902	40.4167754
/inmueble/30771618/	calle conde de aranda, 10, Recoletos, Madrid	1300	-3.688226	40.42198519999999
/inmueble/30771581/	Nuevos Ministerios-Ríos Rosas, Madrid	1500	-3.692299999999999	40.446803
/inmueble/30771220/	calle majuelo, 3, Acacias, Madrid	1100	-3.7072	40.40302
/inmueble/30771551/	calle encomienda, 6, Lavapiés-Embajadores, Madrid	510	-3.7052731	40.4109039
/inmueble/30771421/	calle de la esperanza, 12, Lavapiés-Embajadores, Madrid	540	-3.6998802	40.41014
/inmueble/30771539/	travesía de los señores de luzon, 1, Palacio, Madrid	1350	-3.710840499999999	40.4160087
/inmueble/30771516/	calle benamargosa, 2, Palomeras sureste, Madrid	400	-3.6426498	40.383698
/inmueble/30771505/	Vallehermoso, Madrid	1440	-3.711667	40.442778
/inmueble/30771501/	travesía de los señores de luzon, 1, Palacio, Madrid	1450	-3.710840499999999	40.4160087
/inmueble/30771484/	calle hacienda de pavones, Pavones, Madrid	650	-3.6391072	40.4021415
/inmueble/30771492/	calle toledo, Sol, Madrid	1300	-3.7109544	40.4081036
/inmueble/30771489/	calle de pradillo, Ciudad Jardín, Madrid	3200	-3.672636	40.448894
/inmueble/30771457/	Argüelles, Madrid	1250	-3.721413	40.4294136
/inmueble/30771453/	calle hilarión eslava, Gaztambide, Madrid	1200	-3.7166339	40.4354656
/inmueble/30771451/	ana de austria, 25, Sanchinarro, Madrid	950	-3.655867899999999	40.4963248
/inmueble/30771450/	paseo de la florida, Casa de Campo, Madrid	1400	-3.7223538	40.4222499
/inmueble/30771462/	plaza del campillo del mundo nuevo, 1, Lavapiés-Embajadores, Madrid	700	-3.7080808	40.4068623
/inmueble/30771446/	sorolla, 19, Ventilla-Almenara, Madrid	1050	-3.6958778	40.4694349
/inmueble/30771440/	calle ortega y gasset, Lista, Madrid	1900	-3.6802428	40.4301403
/inmueble/30771430/	sandoval, Trafalgar, Madrid	1000	-3.7045866	40.4301222
/inmueble/29124965/	calle Isidro Fernandez, Tres Olivos - Valverde, Madrid	575	 -3.685974	40.4837814
/inmueble/30771417/	travesía de las vistillas, 13, Palacio, Madrid	800	-3.7145998	40.4118123
/inmueble/30771413/	sorolla, 19, Ventilla-Almenara, Madrid	840	-3.6958778	40.4694349
/inmueble/1679110/	calle Amparo, 101, Lavapiés-Embajadores, Madrid	850	-3.7004848	40.4065686
/inmueble/30771374/	avenida de moratalaz, 193, Marroquina, Madrid	700	-3.6425664	40.4094249
/inmueble/30771366/	sorolla, 19, Ventilla-Almenara, Madrid	975	 -3.6958778	40.4694349
/inmueble/30771354/	avenida de badajoz, 8, San Pascual, Madrid	650	-3.6565575	40.44081389999999
/inmueble/30771353/	costanilla de los angeles, Sol, Madrid	599	 -3.708227699999999	40.4188252
/inmueble/30771324/	Chueca-Justicia, Madrid	1000	-3.6976649	40.4226162
/inmueble/30771317/	calle de arroyo de fontarron, 301, Fontarrón, Madrid	625	 -3.6425712	40.3966495
/inmueble/30771261/	calle de guzmán el bueno, 14, Arapiles, Madrid	950	-3.7079868	40.42994119999999
/inmueble/1671979/	calle Rodríguez San Pedro, 18, Arapiles, Madrid	1800	-3.7092705	40.4316444
/inmueble/25538553/	El Viso, Madrid	3300	-3.6866813	40.4490213
/inmueble/30771311/	calle del general oraá, Castellana, Madrid	1450	-3.6821174	40.4360933
/inmueble/30771306/	paseo de las delicias, 73, Delicias, Madrid	790	-3.69395	40.39727999999999
/inmueble/30771301/	calle de ponzano, Nuevos Ministerios-Ríos Rosas, Madrid	1150	-3.7010613	40.4426828
/inmueble/2167137/	plaza Puerto de la Cruz, 7, Pilar, Madrid	550	-3.7150755	40.478733
/inmueble/29147837/	calle Calvo Asensio, Gaztambide, Madrid	700	-3.712487	40.4321626
/inmueble/30771289/	calle torrelaguna, 61, San Pascual, Madrid	1450	-3.6539139	40.44278660000001
/inmueble/30771277/	paseo de las delicias, 73, Delicias, Madrid	800	-3.69395	40.39727999999999
/inmueble/30771249/	almirante, Chueca-Justicia, Madrid	899	 -3.6976649	40.4226162
/inmueble/30771240/	balcon de corralejos, 6, Campo de las Naciones-Corralejos, Madrid	1065	 -3.6162032	40.4638952
/inmueble/30771226/	calle alcaudón, 62, San Isidro, Madrid	650	-3.7349846	40.3945016
/inmueble/30771222/	paseo de la castellana, El Viso, Madrid	3300	-3.6902554	40.4510785
/inmueble/30768948/	calle de fermín caballero, 15, Peñagrande, Madrid	950	-3.718058	40.4800549
/inmueble/30771201/	calle verja, Zofío, Madrid	550	-3.7138886	40.3822205
/inmueble/28820899/	calle Calvario, 5, Lavapiés-Embajadores, Madrid	450	-3.7032646	40.4113595
/inmueble/28042071/	avenida Doctor Federico Rubio y Gali, 30, Bellas Vistas, Madrid	650	-3.7093746	40.4505778
/inmueble/30771158/	Goya, Madrid	2400	-3.6718503	40.42572089999999
/inmueble/30771133/	artajona, Valdezarza, Madrid	650	-3.7177107	40.4642904
/inmueble/30771120/	calle avendano, Niño Jesús, Madrid	3000	-3.6724596	40.4097069
/inmueble/30771111/	fomento, 27, Palacio, Madrid	940	-3.710943	40.42186969999999
/inmueble/28033397/	Arapiles, Madrid	1200	-3.706705899999999	40.4343911
/inmueble/30771103/	calle de alcalá, Ventas, Madrid	625	 -3.6420235	40.4360521
/inmueble/30771102/	calle hermanos bécquer, Castellana, Madrid	6500	-3.6871509	40.4359448
/inmueble/30771088/	san carlos, 1, Lavapiés-Embajadores, Madrid	675	 -3.7022984	40.4103471
/inmueble/30771081/	calle madera, 40, Malasaña-Universidad, Madrid	750	-3.7037902	40.4167754
/inmueble/30771067/	calle josé antonio zapata, 8, Legazpi, Madrid	760	-3.691579999999999	40.38628
/inmueble/30771047/	calle alcalá, Ventas, Madrid	650	-3.6420235	40.4360521
/inmueble/30771022/	mancebos, 6, Palacio, Madrid	910	-3.712138	40.4119865
/inmueble/30770986/	reina, 15, Chueca-Justicia, Madrid	685	 -3.6976649	40.4226162
/inmueble/30770983/	calle de cristóbal bordiú, Nuevos Ministerios-Ríos Rosas, Madrid	1700	-3.7010613	40.4426828
/inmueble/28818687/	paseo Marques de Zafra, Fuente del Berro, Madrid	800	-3.6649658	40.4259401
/inmueble/30770975/	reina, 15, Chueca-Justicia, Madrid	635	 -3.6976649	40.4226162
/inmueble/30770968/	calle londres, 12, Guindalera, Madrid	800	-3.6696437	40.4313316
/inmueble/30770957/	plaza de los reyes magos, 9, Niño Jesús, Madrid	550	-3.6771142	40.4084118
/inmueble/1995722/	calle Cardenal Siliceo, 22, Prosperidad, Madrid	800	-3.6704114	40.4443333
/inmueble/30770955/	calle isabel la catolica, 17, Palacio, Madrid	600	-3.7093434	40.421694
/inmueble/401168/	calle Francisco Silvela, 87, Lista, Madrid	1100	-3.6774212	40.4370108
/inmueble/30770943/	calle mira el sol, Lavapiés-Embajadores, Madrid	475	 -3.7060866	40.407256
/inmueble/26997690/	calle Valverde, 32, Malasaña-Universidad, Madrid	975	 -3.7037902	40.4167754
/inmueble/30770907/	calle escalonilla, 6, Los Cármenes, Madrid	520	-3.7418282	40.395511
/inmueble/30770914/	maldonado, Castellana, Madrid	4700	-3.679516999999999	40.4337243
/inmueble/30770921/	calle artesa de segre, 12, Ciudad Universitaria, Madrid	2500	-3.7272962	40.46966159999999
/inmueble/30770904/	calle segre, El Viso, Madrid	2900	-3.683469999999999	40.4507288
/inmueble/25394866/	calle de Sofía, 177, Rosas, Madrid	820	-3.60182	40.42205
/inmueble/30770896/	calle ponzano, Nuevos Ministerios-Ríos Rosas, Madrid	500	-3.7010613	40.4426828
/inmueble/29181671/	calle Alcañiz, 19, Timón, Madrid	800	-3.5887297	40.47432440000001
/inmueble/2137122/	calle Garellano, 4, Bellas Vistas, Madrid	790	-3.7059418	40.4479075
/inmueble/30770869/	calle monteleon, Trafalgar, Madrid	550	-3.7047387	40.4293726
/inmueble/30770818/	calle segre, 20, El Viso, Madrid	1500	-3.6847274	40.4512911
/inmueble/2072169/	calle González Sola, 8, Ventilla-Almenara, Madrid	690	-3.6958778	40.4694349
/inmueble/30770841/	calle josé antonio de armona, Palos de Moguer, Madrid	730	-3.6971122	40.4051237
/inmueble/30770812/	calle vargas, Nuevos Ministerios-Ríos Rosas, Madrid	565	 -3.7010613	40.4426828
/inmueble/30770803/	calle lagasca, Recoletos, Madrid	800	-3.6849347	40.429176
/inmueble/30770684/	Chueca-Justicia, Madrid	625	 -3.6976649	40.4226162
/inmueble/30770664/	calle martínez corrochano, 29, Adelfas, Madrid	730	-3.6689745	40.4030727
/inmueble/30770678/	calle juan de mariana, Delicias, Madrid	900	-3.6857368	40.3986379
/inmueble/30770674/	valdespina, Canillas, Madrid	1600	-3.6410901	40.4661026
/inmueble/30770673/	Aravaca, Madrid	1200	-3.7854441	40.458195
/inmueble/30770672/	calle de narváez, Ibiza, Madrid	800	-3.676071	40.4203826
/inmueble/26218602/	calle Espoz y Mina, 32, Huertas-Cortes, Madrid	800	-3.6999409	40.4142211
/inmueble/30770652/	calle puerto rico, Bernabéu-Hispanoamérica, Madrid	500	-3.6797153	40.4552066
/inmueble/30770638/	Malasaña-Universidad, Madrid	900	-3.7115537	40.4299281
/inmueble/30770596/	calle lagasca, Recoletos, Madrid	500	-3.6849347	40.429176
/inmueble/30770595/	calle marques de urquijo, Argüelles, Madrid	850	-3.7193761	40.4296009
/inmueble/30770590/	El Viso, Madrid	1500	-3.6866813	40.4490213
/inmueble/30770572/	Castellana, Madrid	5750	-3.6871448	40.435469
/inmueble/25230887/	calle de Quesada, 3, Trafalgar, Madrid	650	-3.7006301	40.4336941
/inmueble/30770467/	pasaje marcudos, 2, Moscardó, Madrid	600	-3.701648	40.3888414
/inmueble/30770506/	paseo san francisco de sales, Vallehermoso, Madrid	1425	 -3.7126061	40.4426052
/inmueble/30770515/	calle de maldonado, Castellana, Madrid	790	-3.679516999999999	40.4337243
/inmueble/30770512/	plaza marina española, Palacio, Madrid	1200	-3.7115427	40.42080079999999
/inmueble/30770510/	calle vicente carballal, 3, Butarque, Madrid	475	 -3.6827539	40.3529245
/inmueble/30770475/	calle san agustín, 9, Huertas-Cortes, Madrid	1100	-3.6999409	40.4142211
/inmueble/29379819/	calle del Amparo, 98, Lavapiés-Embajadores, Madrid	630	-3.7004195	40.4061651
/inmueble/30770482/	calle de ayala, 23, Recoletos, Madrid	6615	 -3.6852358	40.4278737
/inmueble/30770481/	calle general álvarez de castro, Trafalgar, Madrid	875	 -3.702703799999999	40.43664769999999
/inmueble/30770479/	mancebo, Palacio, Madrid	1100	-3.7128097	40.4123734
/inmueble/30770440/	cuatro caminos , c/marques de lema, 13, Vallehermoso, Madrid	800	-3.70622	40.4463686
/inmueble/26451590/	calle Acuerdo, 37, Malasaña-Universidad, Madrid	1150	-3.7037902	40.4167754
/inmueble/26073829/	calle Ángel Muñoz, 18, San Juan Bautista, Madrid	600	-3.6577977	40.4539573
/inmueble/30770456/	calle padilla, 41, Lista, Madrid	1200	-3.6769025	40.4313176
/inmueble/30770446/	calle gaztambide, Gaztambide, Madrid	900	-3.715359	40.4383437
/inmueble/30770426/	Sol, Madrid	450	-3.703889	40.416667
/inmueble/26971480/	calle Labrador, Acacias, Madrid	750	-3.7024987	40.4013837
/inmueble/28474352/	calle General Oráa, Castellana, Madrid	2150	-3.6821174	40.4360933
/inmueble/27634173/	calle General Oraá, 18, Castellana, Madrid	1450	-3.6849105	40.4361532
/inmueble/30770370/	calle velarde, Malasaña-Universidad, Madrid	550	-3.7037902	40.4167754
/inmueble/30770381/	Conde Orgaz-Piovera, Madrid	2100	-3.6333569	40.4599098
/inmueble/30770378/	plaza de españa, 18, Argüelles, Madrid	2970	-3.7122195	40.4242498
/inmueble/2062084/	calle Dulcinea, 53, Cuatro Caminos, Madrid	750	-3.699838799999999	40.4506654
/inmueble/30770340/	calle de blasco de garay, 49, Gaztambide, Madrid	695	 -3.7115166	40.4355954
/inmueble/30770291/	calle antonio prieto, 48, Zofío, Madrid	590	-3.7149491	40.3804858
/inmueble/30770273/	diario de la nacion, 19, Puerta Bonita, Madrid	650	-3.7472731	40.376013
/inmueble/30770267/	altamirano, Argüelles, Madrid	750	-3.7169241	40.4313765
/inmueble/30770244/	calle antonio prieto, 48, Zofío, Madrid	590	-3.7149491	40.3804858
/inmueble/30768752/	calle acuerdo, 37, Malasaña-Universidad, Madrid	1100	-3.7037902	40.4167754
/inmueble/30770224/	Concepción, Madrid	750	-3.648056	40.440278
/inmueble/28621685/	avenida Prunos, Palomas, Madrid	900	-3.6203211	40.453409
/inmueble/26546592/	calle Benjamín, 33, Valdeacederas, Madrid	600	-3.702844	40.4648805
/inmueble/30770157/	calle de palomares, San Andrés, Madrid	450	-3.710883899999999	40.3471665
/inmueble/30770167/	calle ferraz, Argüelles, Madrid	1000	-3.7192788	40.4281738
/inmueble/30770163/	Conde Orgaz-Piovera, Madrid	6500	-3.6333569	40.4599098
/inmueble/28138547/	avenida de la Reina Victoria, 15, Vallehermoso, Madrid	1250	-3.7067206	40.4468031
/inmueble/30770143/	calle espronceda, Nuevos Ministerios-Ríos Rosas, Madrid	2300	-3.7010613	40.4426828
/inmueble/30770111/	calle jose antonio zapata, 8, Legazpi, Madrid	760	-3.691579999999999	40.38628
/inmueble/30770121/	calle de la princesa, Malasaña-Universidad, Madrid	1100	-3.7037902	40.4167754
/inmueble/30770067/	plaza tarifa, Puerta Bonita, Madrid	575	 -3.7311277	40.3840893
/inmueble/30770058/	calle de goya, Goya, Madrid	2000	-3.6801276	40.42498459999999
/inmueble/30770045/	calle fernandez de los ríos, Gaztambide, Madrid	700	-3.711432	40.4352441
/inmueble/30770025/	calle del marqués de urquijo, Argüelles, Madrid	1300	-3.7193761	40.4296009
/inmueble/30769998/	calle fernandez de los ríos, Gaztambide, Madrid	800	-3.711432	40.4352441
/inmueble/30769995/	calle velarde, Malasaña-Universidad, Madrid	650	-3.7037902	40.4167754
/inmueble/30769977/	calle peñuelas, Acacias, Madrid	525	 -3.702714599999999	40.401355
/inmueble/30769955/	calle fuente chica, 8, Tres Olivos - Valverde, Madrid	700	-3.6896705	40.495555
/inmueble/30769947/	Nuevos Ministerios-Ríos Rosas, Madrid	1500	-3.692299999999999	40.446803
/inmueble/1146883/	calle Hachero, 11, San Diego, Madrid	400	-3.6695157	40.3913805
/inmueble/30769101/	calle de blasco de garay, 8, Arapiles, Madrid	1000	-3.7117055	40.4307635
/inmueble/30769866/	Palacio, Madrid	1400	-3.7143181	40.4163387
/inmueble/29329403/	Recoletos, Madrid	2100	-3.6866377	40.4238593
/inmueble/30769852/	plaza de ciudad de salta,, Colina, Madrid	800	-3.661683499999999	40.4546797
/inmueble/30769843/	calle fuencarral, Trafalgar, Madrid	1150	-3.7014676	40.4266856
/inmueble/30769841/	Gaztambide, Madrid	950	-3.7169624	40.4366125
/inmueble/30769822/	calle general varela, Cuatro Caminos, Madrid	850	-3.6952318	40.4564069
/inmueble/30769758/	calle de doctor fleming, 33, Nueva España, Madrid	1100	-3.6880212	40.4613576
/inmueble/30769802/	Pacífico, Madrid	900	-3.6779406	40.4041447
/inmueble/30769798/	calle prado, Huertas-Cortes, Madrid	1300	-3.6999409	40.4142211
/inmueble/30769777/	honduras, Nueva España, Madrid	950	-3.6808096	40.4595843
/inmueble/30769778/	montesa, Goya, Madrid	700	-3.673048499999999	40.429038
/inmueble/30769762/	plaza de arteijo, Pilar, Madrid	650	-3.7068425	40.4783378
/inmueble/30769755/	Cuatro Caminos, Madrid	1650	-3.700726599999999	40.4510198
/inmueble/30769738/	calle cantueso, 5, Valdeacederas, Madrid	695	 -3.706670299999999	40.4660886
/inmueble/30769706/	Costillares, Madrid	700	-3.6718324	40.473685
/inmueble/30769625/	calle reina mercedes, 4, Cuatro Caminos, Madrid	800	-3.6995267	40.4508263
/inmueble/30769659/	Almagro, Madrid	1600	-3.695287	40.4338618
/inmueble/30769651/	calle magdalena, 12, Lavapiés-Embajadores, Madrid	500	-3.7018515	40.4123144
/inmueble/30769634/	calle argensola, Chueca-Justicia, Madrid	2000	-3.6976649	40.4226162
/inmueble/28290416/	calle de Fernando el Católico, 50, Gaztambide, Madrid	1200	-3.7127786	40.4343186
/inmueble/30769597/	calle de alcalá, 126, Goya, Madrid	1350	-3.671588899999999	40.4265412
/inmueble/30766476/	calle blasco de garay, 18, Gaztambide, Madrid	1600	-3.7120725	40.431828
/inmueble/30766411/	calle blasco de garay, 18, Gaztambide, Madrid	1200	-3.7120725	40.431828
/inmueble/30769601/	Arapiles, Madrid	700	-3.706705899999999	40.4343911
/inmueble/30765700/	calle velazquez, Recoletos, Madrid	2400	-3.6834465	40.4333971
/inmueble/30769576/	calle de blasco de garay, Arapiles, Madrid	740	-3.7114695	40.4347403
/inmueble/30769579/	paseo del prado, Huertas-Cortes, Madrid	1600	-3.6999409	40.4142211
/inmueble/30769543/	calle redondilla, Palacio, Madrid	550	-3.7128097	40.4123734
/inmueble/29833779/	calle del Espíritu Santo, 41, Malasaña-Universidad, Madrid	800	-3.7062678	40.4256367
/inmueble/30766946/	calle cadarso, 7, Argüelles, Madrid	1400	-3.7146718	40.42179489999999
/inmueble/1095362/	calle General Pardiñas, 42, Goya, Madrid	525	 -3.6783261	40.4278178
/inmueble/30761629/	Huertas-Cortes, Madrid	2600	-3.6981578	40.4135026
/inmueble/30769513/	calle andres mellado, Gaztambide, Madrid	1300	-3.7142636	40.4364487
/inmueble/2095772/	calle Espronceda, 17, Nuevos Ministerios-Ríos Rosas, Madrid	1000	-3.7010613	40.4426828
/inmueble/30769487/	calle juan bravo, 45, Lista, Madrid	1200	-3.6768272	40.4325182
/inmueble/30769488/	calle de ayala, 156, Goya, Madrid	900	-3.6693352	40.426928
/inmueble/25772584/	calle Bernardino Obregón, 17, Palos de Moguer, Madrid	1000	-3.6992962	40.4032826
/inmueble/30769453/	calle fundadores, Fuente del Berro, Madrid	700	-3.666821	40.4246797
/inmueble/30769443/	calle gran vía, Chueca-Justicia, Madrid	3000	-3.6976649	40.4226162
/inmueble/30769417/	paseo de las acacias, Acacias, Madrid	550	-3.7084244	40.4034088
/inmueble/30769416/	calle libertad, Chueca-Justicia, Madrid	1000	-3.6976649	40.4226162
/inmueble/2172351/	calle Blasco de Garay, 62, Arapiles, Madrid	650	-3.7112804	40.4358167
/inmueble/30769412/	paseo de la castellana, Cuzco-Castillejos, Madrid	3150	-3.6954509	40.4600771
/inmueble/30769418/	santa cruz de marcenado, Malasaña-Universidad, Madrid	2000	-3.7087042	40.42887
/inmueble/26436208/	paseo de Extremadura, 129, Lucero, Madrid	700	-3.7532581	40.404461
/inmueble/30768546/	avenida séptima, 30, Rejas, Madrid	1100	-3.5995238	40.4468746
/inmueble/30769404/	calle de ayala, 156, Goya, Madrid	750	-3.6693352	40.426928
/inmueble/30769389/	plaza conde del valle de suchil, Arapiles, Madrid	1800	-3.7072964	40.4315307
/inmueble/30769384/	calle picos de europa, Numancia, Madrid	400	-3.660340699999999	40.3949443
/inmueble/30769375/	calle hortaleza, Chueca-Justicia, Madrid	550	-3.6976649	40.4226162
/inmueble/30764497/	calle de las fraguas, 34, Casco Histórico de Barajas, Madrid	600	-3.5754271	40.4729015
/inmueble/30769334/	calle de ponzano, Nuevos Ministerios-Ríos Rosas, Madrid	900	-3.7010613	40.4426828
/inmueble/30769333/	via gran via de hortaleza, 5, Pinar del Rey, Madrid	1280	-3.6574566	40.4675201
/inmueble/30769329/	calle alejandro sanchez, 77, Opañel, Madrid	590	-3.719365	40.3896742
/inmueble/30769328/	calle virtudes, Almagro, Madrid	700	-3.6986612	40.4374891
/inmueble/30769322/	Goya, Madrid	1200	-3.6718503	40.42572089999999
/inmueble/897667/	calle Maudes, 13, Nuevos Ministerios-Ríos Rosas, Madrid	800	-3.7010613	40.4426828
/inmueble/27248354/	calle de Bravo Murillo, 191, Berruguete, Madrid	900	-3.7030548	40.4543979
/inmueble/30769268/	alonso el barco, Lavapiés-Embajadores, Madrid	1500	-3.7009077	40.4085123
/inmueble/30769234/	Goya, Madrid	1800	-3.6718503	40.42572089999999
/inmueble/30769192/	avenida monte igueldo, 94, San Diego, Madrid	375	 -3.6706661	40.3913678
/inmueble/27214793/	calle Manuela Malasana, 19, Malasaña-Universidad, Madrid	480	-3.7037902	40.4167754
/inmueble/30769189/	calle imperial, Sol, Madrid	425	 -3.7070825	40.4144885
/inmueble/29348956/	calle Santa Susana, 29, Pinar del Rey, Madrid	550	-3.6466425	40.4774153
/inmueble/30769174/	plaza de las comendadoras, Malasaña-Universidad, Madrid	875	 -3.7037902	40.4167754
/inmueble/30769163/	calle de alcalá, Pueblo Nuevo, Madrid	790	-3.6392723	40.4373696
/inmueble/30769161/	calle ercilla, Acacias, Madrid	425	 -3.7019931	40.4017118
/inmueble/25171660/	calle de Silva, 20, Malasaña-Universidad, Madrid	930	-3.7037902	40.4167754
/inmueble/30769149/	avenida pablo iglesias, 35, Bellas Vistas, Madrid	1150	-3.7090741	40.4484184
/inmueble/29729418/	paseo Juan XXIII, 23, Ciudad Universitaria, Madrid	670	-3.7135342	40.4505485
/inmueble/1688582/	calle Sor Ángela de la Cruz, 30, Cuzco-Castillejos, Madrid	870	-3.6954509	40.4600771
/inmueble/30769065/	calle tesoro, Malasaña-Universidad, Madrid	500	-3.7037902	40.4167754
/inmueble/30769078/	calle vilches, Entrevías, Madrid	575	 -3.664037	40.3764024
/inmueble/30768984/	calle de la unanimidad, 32, Los Rosales, Madrid	700	-3.68719	40.36139
/inmueble/30769071/	calle maria de molina, Castellana, Madrid	800	-3.6817684	40.4375496
/inmueble/30769052/	travesía vistillas, Palacio, Madrid	850	-3.7143539	40.4114355
/inmueble/30768908/	calle de fernando el católico, 60, Gaztambide, Madrid	600	-3.7139145	40.4343964
/inmueble/30769028/	calle virgen de los peligros, Huertas-Cortes, Madrid	1500	-3.6999409	40.4142211
/inmueble/30769003/	donoso cortés, Arapiles, Madrid	1200	-3.7113362	40.4363133
/inmueble/30768994/	calle magnolias, 116, Ventilla-Almenara, Madrid	700	-3.6958778	40.4694349
/inmueble/30768989/	calle arechavaleta, Los Ángeles, Madrid	500	-3.6961957	40.3516459
/inmueble/30768970/	calle juan bravo, Castellana, Madrid	3500	-3.6795969	40.4327207
/inmueble/30768954/	montesa, Goya, Madrid	1700	-3.673048499999999	40.429038
/inmueble/30768965/	calle garrovillas, Águilas, Madrid	570	-3.779208499999999	40.3799781
/inmueble/30768947/	hortaleza, 57, Chueca-Justicia, Madrid	1800	-3.6976649	40.4226162
/inmueble/30768935/	Malasaña-Universidad, Madrid	650	-3.7115537	40.4299281
/inmueble/30768928/	ramon power, Canillas, Madrid	1050	-3.6351601	40.4637182
/inmueble/30768911/	calle camarena, Aluche, Madrid	450	-3.756125199999999	40.391181
/inmueble/30768900/	calle amaltea, Delicias, Madrid	1175	 -3.684404	40.3963811
/inmueble/30768872/	calle conde de xiquena, Chueca-Justicia, Madrid	1150	-3.6976649	40.4226162
/inmueble/28324663/	calle San Restituto, 53, Valdezarza, Madrid	800	-3.7158781	40.4662516
/inmueble/30768856/	calle agustín de iturbide, Pinar del Rey, Madrid	1100	-3.6460558	40.4693646
/inmueble/30768862/	calle andrés mellado, Gaztambide, Madrid	650	-3.7142636	40.4364487
/inmueble/30768853/	calle morejon, Almagro, Madrid	575	 -3.6986612	40.4374891
/inmueble/413548/	calle Pirra, 18, Rejas, Madrid	815	 -3.587992399999999	40.4452863
/inmueble/30768835/	Arapiles, Madrid	1200	-3.706705899999999	40.4343911
/inmueble/1014895/	Alameda de Osuna, Madrid	2700	-3.5948802	40.4561778
/inmueble/30768843/	calle general diaz porlier, Lista, Madrid	900	-3.676819	40.4299602
/inmueble/30767667/	calle de los timbales, 4, Pau de Carabanchel, Madrid	650	-3.7512317	40.3778181
/inmueble/30767663/	calle de san gerardo, 57, Valdezarza, Madrid	1300	-3.7251013	40.4711998
/inmueble/30768824/	calle de castelló, Recoletos, Madrid	1150	-3.6810014	40.4314249
/inmueble/30768823/	calle coslada, Guindalera, Madrid	950	-3.6749023	40.4375478
/inmueble/30767461/	calle de fernández de los rios, 92, Gaztambide, Madrid	1200	-3.7152368	40.435486
/inmueble/25377215/	calle de Blasco de Garay, 64, Arapiles, Madrid	800	-3.7112682	40.43594040000001
/inmueble/30768774/	maudes, Nuevos Ministerios-Ríos Rosas, Madrid	1200	-3.7010613	40.4426828
/inmueble/30767274/	calle andrés obispo, 33, Canillas, Madrid	825	 -3.6482676	40.4649253
/inmueble/30767184/	avenida de moratalaz, 29, Media Legua, Madrid	550	-3.6593508	40.4080068
/inmueble/30767063/	paseo de las delicias, 95, Delicias, Madrid	900	-3.6943809	40.3954413
/inmueble/28693606/	calle de García de Paredes, 9, Trafalgar, Madrid	1350	-3.7022957	40.4370964
